,gauge_id,station_name,river,latitude,longitude,altitude,area,country,source
0,1001602,Pyeongchanggun(Songjeonggyo),오대천,37.62416666666667,128.5511111111111,511.589,229.84,Korea,WAMIS Open API
1,1001603,Taebaeksi(Musagyo),,37.315,128.99444444444444,687.824,,Korea,WAMIS Open API
2,1001605,Song Cheon 1 Kyo,송천,37.668055555555554,128.7097222222222,724.782,123.45,Korea,WAMIS Open API
3,1001607,Samcheoksi(Bunchungyo),,37.364444444444445,128.99638888888887,718.848,,Korea,WAMIS Open API
4,1001610,Samcheoksi(Gwangdongdam),골지천,37.343611111111116,128.94722222222222,,125.0,Korea,WAMIS Open API
5,1001613,Samcheoksi(Gwangdonggyo),,37.35861111111112,128.9488888888889,,,Korea,WAMIS Open API
6,1001615,Samcheoksi(Galbatgyo),,37.37166666666667,128.9138888888889,,,Korea,WAMIS Open API
7,1001620,Jeongseongun(Songgyegyo),임계천,37.494166666666665,128.8491666666667,491.02,161.07,Korea,WAMIS Open API
8,1001622,Jeongseongun(Hyulcheongyo),골지천,37.46472222222223,128.84694444444446,479.382,285.96,Korea,WAMIS Open API
9,1001623,Jeongseongun(Ojang2gyo),송천,37.53138888888889,128.73777777777775,443.247,244.6,Korea,WAMIS Open API
10,1001625,Jeongseongun(Songcheongyo),송천,37.48555555555556,128.7186111111111,374.685,350.81,Korea,WAMIS Open API
11,1001626,Jeongseongun(Jeilyeoryanggyo),골지천,37.473333333333336,128.72916666666666,369.492,539.17,Korea,WAMIS Open API
12,1001629,Jeongseongun(Nampyeongdaegyo),한강,37.43888888888888,128.65305555555557,332.062,969.78,Korea,WAMIS Open API
13,1001630,Jeongseongun(Najeongyo),오대천,37.43861111111111,128.6497222222222,333.208,451.62,Korea,WAMIS Open API
14,1001640,Jeongseon3,한강,37.4,128.66666666666666,,,Korea,WAMIS Open API
15,1001641,Jeongseongun(Gakhuigyo),어천,37.30833333333333,128.81444444444446,522.577,88.38,Korea,WAMIS Open API
16,1001647,Jeongseon1,,37.36666666666667,128.68333333333334,,,Korea,WAMIS Open API
17,1001649,Jeongseongun(Yaesangyo),어천,37.373333333333335,128.67083333333332,300.915,229.5,Korea,WAMIS Open API
18,1001650,Jeongseongun(Samgeorigyo),지장천,37.25388888888889,128.77833333333334,477.886,117.12,Korea,WAMIS Open API
19,1001655,Jeongseongun(Jeongseonje1gyo),한강,37.37833333333333,128.65722222222223,296.789,1693.07,Korea,WAMIS Open API
20,1001658,Jeongseongun(Gwanghagyo),한강,37.36972222222222,128.6188888888889,273.539,1792.24,Korea,WAMIS Open API
21,1001660,Jeongseongun(Nakdonggyo),지장천,37.31888888888889,128.69361111111112,324.016,188.43,Korea,WAMIS Open API
22,1001665,Pyeongchanggun(Mahagyo),창리천,37.293055555555554,128.54472222222222,218.773,97.0,Korea,WAMIS Open API
23,1001670,Yeongwolgun(Geoungyo),한강,37.234722222222224,128.51222222222222,196.936,2274.28,Korea,WAMIS Open API
24,1001680,Yeongweol 2,한강,37.21666666666667,128.51083333333332,194.346,2283.2,Korea,WAMIS Open API
25,1001683,Yeongwolgun(Samokgyo),한강,37.20722222222223,128.5102777777778,189.914,2447.9,Korea,WAMIS Open API
26,1001690,Yeongwolgun(Yeongwoldaegyo),한강,37.18194444444444,128.4752777777778,183.205,2436.08,Korea,WAMIS Open API
27,1001695,Yeongwolgun(Sinchongyo),석항천,37.18222222222222,128.53944444444446,225.426,107.98,Korea,WAMIS Open API
28,1002605,Pyeongchanggun(Imokjeonggyo),속사천,37.62138888888889,128.47194444444446,590.873,56.55,Korea,WAMIS Open API
29,1002610,Pyeongchanggun(Jangpyeonggyo),속사천,37.58638888888889,128.4127777777778,526.963,104.99,Korea,WAMIS Open API
30,1002615,Pyeongchanggun(Jinjeongyo),흥정천,37.586111111111116,128.39138888888888,521.641,143.96,Korea,WAMIS Open API
31,1002625,Pyeongchanggun(Sunaegyo),평창강,37.474444444444444,128.41,385.387,394.3,Korea,WAMIS Open API
32,1002626,Pyeongchanggun(Biogyo),대화천,37.52916666666667,128.45138888888889,463.44,39.86,Korea,WAMIS Open API
33,1002630,,평창강,37.450833333333335,128.42083333333332,,394.8,Korea,WAMIS Open API
34,1002635,Pyeongchanggun(Sachogyo),대화천,37.45527777777778,128.43972222222223,374.616,84.81,Korea,WAMIS Open API
35,1002636,Pyeongchanggun(Habangrimgyo),계촌천,37.43083333333333,128.37361111111113,366.978,85.98,Korea,WAMIS Open API
36,1002640,Pyeongchanggun(Sangbangrimgyo),평창강,37.43138888888889,128.41722222222222,359.217,528.49,Korea,WAMIS Open API
37,1002650,Pyeongchanggun(Pyeongchanggyo),,37.367777777777775,128.40611111111113,288.472,696.93,Korea,WAMIS Open API
38,1002655,Yeongwolgun(Panungyo),평창강,37.29666666666667,128.3438888888889,240.893,806.8,Korea,WAMIS Open API
39,1002670,Hoengseonggun(Dunnbangnaeri),주천강,37.514722222222225,128.21555555555554,482.348,62.99,Korea,WAMIS Open API
40,1002675,Hoengseonggun(Anheunggyo),주천강,37.41222222222222,128.155,414.303,187.45,Korea,WAMIS Open API
41,1002680,Yeongwolgun(Duhackgyo),주천강,37.296388888888885,128.1925,306.256,375.67,Korea,WAMIS Open API
42,1002685,Yeongwolgun(Jucheongyo),,37.2675,128.26583333333335,240.555,533.75,Korea,WAMIS Open API
43,1002687,Yeongwolgun(Sincheongyo),,37.22972222222222,128.33166666666665,211.492,599.66,Korea,WAMIS Open API
44,1002690,,주천강,37.21666666666667,128.31666666666666,193.466,1606.2,Korea,WAMIS Open API
45,1002691,Yeongwolgun(Hwabyeonggyo),,37.21527777777778,128.37472222222223,195.757,1580.85,Korea,WAMIS Open API
46,1002693,Yeongwolgun(Nonggongdanjigyo),문곡천,37.224444444444444,128.42249999999999,199.577,85.35,Korea,WAMIS Open API
47,1002694,Yeongwolgun(Yeondanggyo),,37.196666666666665,128.4025,191.95,1611.7,Korea,WAMIS Open API
48,1002695,Yeongwolgun(Bukssangri),평창강,37.19416666666666,128.40916666666666,192.189,1615.8,Korea,WAMIS Open API
49,1002698,Yeongwolgun(Palgoegyo),평창강,37.17194444444444,128.45527777777778,181.215,1766.97,Korea,WAMIS Open API
50,1003603,Yeongwolgun(Naeri2gyo),내리천,37.106944444444444,128.67527777777778,255.18,88.42,Korea,WAMIS Open API
51,1003605,Yeongwolgun(chunghongyo),옥동천,37.14222222222222,128.6808333333333,269.682,229.6,Korea,WAMIS Open API
52,1003620,Yeongwolgun(Okdonggyo),옥동천,37.12222222222222,128.56416666666667,183.969,483.67,Korea,WAMIS Open API
53,1003625,Yeongwolgun(Gakdonggyo),한강,37.120555555555555,128.5402777777778,165.335,4252.24,Korea,WAMIS Open API
54,1003626,Danyangun(Deulgolgyo),대가리천,37.032777777777774,128.29638888888888,155.052,42.88,Korea,WAMIS Open API
55,1003630,Danyanggun(Osari),한강,37.09861111111111,128.51083333333332,159.971,4690.0,Korea,WAMIS Open API
56,1003632,Danyanggun(Bukbyeokgyo),,37.08555555555556,128.48527777777775,155.72,4819.1,Korea,WAMIS Open API
57,1003635,,,37.03611111111111,128.40805555555556,,,Korea,WAMIS Open API
58,1003636,Danyanggun(gadaegyo),한강,37.040277777777774,128.40555555555557,139.454,4971.62,Korea,WAMIS Open API
59,1003640,,한강,37.016666666666666,128.38333333333333,137.12,,Korea,WAMIS Open API
60,1003642,Danyanggun(Dukcheongyo),한강,37.00555555555555,128.38916666666665,135.027,5088.49,Korea,WAMIS Open API
61,1003644,,,36.97777777777778,128.3475,,,Korea,WAMIS Open API
62,1003645,Danyanggun(danyang1gyo),죽령천,36.93111111111111,128.33555555555557,140.903,129.76,Korea,WAMIS Open API
63,1003646,,,36.93055555555555,128.3211111111111,,,Korea,WAMIS Open API
64,1003650,,한강,36.916666666666664,128.28333333333333,112.709,5022.6,Korea,WAMIS Open API
65,1003652,Jecheonsi(Deokdonggyo),운학천,37.18833333333333,127.9925,264.56,30.95,Korea,WAMIS Open API
66,1003654,Jecheonsi(Songgyegyo),동달천,36.882222222222225,128.07833333333332,158.201,48.17,Korea,WAMIS Open API
67,1003655,Jecheonsi(Multaeri),한강,36.99388888888889,128.16583333333335,,887.8,Korea,WAMIS Open API
68,1003657,Jecheonsi(Gangjeo3gyo),장평천,37.12277777777778,128.20388888888888,227.634,53.1,Korea,WAMIS Open API
69,1003658,Jecheonsi(Busudonggyo),원서천,37.14861111111111,128.0088888888889,219.627,99.21,Korea,WAMIS Open API
70,1003660,Jecheonsi(Palsonggyo),제천천,37.14722222222222,128.11972222222224,214.71,145.97,Korea,WAMIS Open API
71,1003661,Jecheongun(Gugokgyo),제천천,37.11222222222222,128.10611111111112,185.267,287.26,Korea,WAMIS Open API
72,1003662,,,37.06777777777778,128.03250000000003,,,Korea,WAMIS Open API
73,1003664,ChungJuBonDamRight,한강,37.00361111111111,127.99638888888889,,6648.0,Korea,WAMIS Open API
74,1003665,Chungjusi(Chungjudambangsuro),한강,37.00805555555556,127.9888888888889,0.0,6648.0,Korea,WAMIS Open API
75,1003666,Chungjusi(Chungjudam),한강,37.00555555555555,127.99194444444444,0.0,6648.0,Korea,WAMIS Open API
76,1003667,Jecheonsi(Yongamgyo),성천,36.92805555555555,128.14,226.251,36.34,Korea,WAMIS Open API
77,1003668,WeolAk,한강,36.91138888888889,128.0727777777778,,619.0,Korea,WAMIS Open API
78,1003670,,한강,37.0,127.96666666666667,62.031,6657.3,Korea,WAMIS Open API
79,1003680,Chungju Dam Outlet,한강,37.0,127.91666666666667,221.0,6648.0,Korea,WAMIS Open API
80,1004616,Cheongjusi(Cheongseokgulgyo),감천,36.61194444444445,127.68166666666667,209.399,112.96,Korea,WAMIS Open API
81,1004620,Cheongjusi(Okhwa1gyo),달천,36.61527777777778,127.70166666666667,198.602,258.92,Korea,WAMIS Open API
82,1004630,Ko Sung Kyo,달천,36.66611111111111,127.76333333333334,156.975,682.41,Korea,WAMIS Open API
83,1004631,Goesangun(Wolmungyo),압항천,36.69416666666666,127.74527777777777,173.029,58.21,Korea,WAMIS Open API
84,1004635,,,36.70138888888889,127.81444444444445,,,Korea,WAMIS Open API
85,1004640,Goesangun(Jeokseokgyo),쌍천,36.763888888888886,127.98027777777779,200.251,60.82,Korea,WAMIS Open API
86,1004643,KwoesanDam,,36.75888888888889,127.84277777777777,,677.0,Korea,WAMIS Open API
87,1004645,Goesangun(sujungyo),달천,36.76722222222222,127.8425,110.221,682.35,Korea,WAMIS Open API
88,1004646,Goesangun(Bidogyo),쌍천,36.79,127.87805555555555,118.175,168.84,Korea,WAMIS Open API
89,1004653,Sosu,,36.86972222222222,127.71888888888888,,6.52,Korea,WAMIS Open API
90,1004661,Goesangun(Je2goesangyo),동진천,36.80916666666666,127.79861111111111,105.05,54.42,Korea,WAMIS Open API
91,1004670,Goesangun(Chusangyo),음성천,36.89361111111111,127.81416666666667,95.281,128.44,Korea,WAMIS Open API
92,1004680,Chungjusi(Munganggyo),석문동천,36.88777777777778,127.94611111111111,98.733,58.7,Korea,WAMIS Open API
93,1004685,,,36.899166666666666,127.9213888888889,,,Korea,WAMIS Open API
94,1004688,Wonnam,,36.855000000000004,127.71055555555556,,36.55,Korea,WAMIS Open API
95,1004690,Chungjusi(Hyangsanri),달천,36.925,127.92444444444445,71.187,1375.1,Korea,WAMIS Open API
96,1004692,Yongdang,,37.00611111111111,127.705,,28.73,Korea,WAMIS Open API
97,1004693,Goesangun(Mokdogyo),달천,36.87,127.85527777777777,87.793,1066.82,Korea,WAMIS Open API
98,1004694,Chungjusi(Judeokgyo),요도천,36.983333333333334,127.79388888888889,76.575,89.25,Korea,WAMIS Open API
99,1004695,Chungjusi(Kookwongyo),요도천,36.96611111111111,127.87166666666666,63.819,147.85,Korea,WAMIS Open API
100,1004696,Chungjusi(Bonggyegyo),충주천,36.97694444444445,127.92027777777778,70.429,20.63,Korea,WAMIS Open API
101,1005605,Chungjusi(Tangeumgyo),달천,36.98861111111111,127.89,63.579,1614.34,Korea,WAMIS Open API
102,1005620,Chungjusi(Chungjujojeongjidambangsuro),한강,37.04611111111111,127.86583333333333,0.0,8340.0,Korea,WAMIS Open API
103,1005635,Chungjusi(Chungjujojeongjidam),한강,37.044444444444444,127.86638888888888,0.0,8340.0,Korea,WAMIS Open API
104,1005640,Chungjusi(Mokgyegyo),한강,37.07611111111112,127.88111111111111,52.337,8487.99,Korea,WAMIS Open API
105,1005650,Chungjusi(Neungamgyo),앙성천,37.09111111111111,127.80138888888888,65.667,40.65,Korea,WAMIS Open API
106,1005660,Chungjusi(Sepogyo),운계천,37.14833333333333,127.81916666666666,59.394,69.58,Korea,WAMIS Open API
107,1005695,Wonjusi(Beopcheongyo),법천천,37.20444444444445,127.75416666666666,43.84,27.73,Korea,WAMIS Open API
108,1005697,Wonjusi(Namhangangdaegyo),한강,37.20611111111111,127.74777777777778,39.676,8840.3,Korea,WAMIS Open API
109,1006610,Hoengseonggun(Yuldongli),계천,37.55694444444444,128.10861111111112,186.458,174.5,Korea,WAMIS Open API
110,1006612,Hoengseonggun(Podong2gyo),,37.552499999999995,128.09861111111113,176.592,,Korea,WAMIS Open API
111,1006615,Hoengseonggun(Hoengseongdam),계천,37.54527777777778,128.0302777777778,,209.0,Korea,WAMIS Open API
112,1006628,Hoengseonggun(Cheonggokgyo),금계천,37.5575,127.97722222222222,145.685,88.42,Korea,WAMIS Open API
113,1006630,Hoengseonggun(Osangyo),금계천,37.520833333333336,127.99138888888889,118.391,153.74,Korea,WAMIS Open API
114,1006650,Hoengseonggun(Hoengseonggyo),섬강,37.495,127.98055555555555,107.053,444.52,Korea,WAMIS Open API
115,1006660,Hoengseonggun(Jeoncheongyo),전천,37.48222222222223,127.98138888888889,107.876,168.39,Korea,WAMIS Open API
116,1006665,Wonjusi(Wonjugyo),,37.34777777777778,127.95555555555556,120.223,94.25,Korea,WAMIS Open API
117,1006666,Wonjusi(Gahyeongyo),,37.39472222222222,127.93555555555555,94.836,140.02,Korea,WAMIS Open API
118,1006667,,,37.42472222222222,127.96361111111112,,,Korea,WAMIS Open API
119,1006670,Wonjusi(Oksangyo),섬강,37.42861111111111,127.92166666666667,80.576,716.5,Korea,WAMIS Open API
120,1006672,Wonjusi(Janghyungyo),섬강,37.42027777777778,127.89805555555556,77.58,930.08,Korea,WAMIS Open API
121,1006676,Wonjusi(Wonjucheondamleft),신촌천,37.29611111111111,127.97333333333333,202.0,7.5,Korea,WAMIS Open API
122,1006677,Wonjusi(Pandae2gyo),삼산천,37.384166666666665,127.78888888888889,80.494,108.51,Korea,WAMIS Open API
123,1006680,Wonjusi(Jijungdaegyo),섬강,37.361666666666665,127.83166666666666,59.492,1186.67,Korea,WAMIS Open API
124,1006685,Wonjusi(Bongmigyo),서곡천,37.335,127.89472222222223,96.038,79.33,Korea,WAMIS Open API
125,1006690,Wonjusi(Munmakgyo),섬강,37.305,127.81027777777777,50.72,1347.96,Korea,WAMIS Open API
126,1006693,Gungchon,,37.22666666666667,127.85805555555555,,21.26,Korea,WAMIS Open API
127,1006694,Bangye,,37.291666666666664,127.77722222222222,,25.0,Korea,WAMIS Open API
128,1007604,Anseongsi(hanpyeonggyo),청미천,37.10638888888889,127.43361111111112,76.169,111.03,Korea,WAMIS Open API
129,1007605,Icheonsi(Janghowongyo),청미천,37.11361111111111,127.63472222222222,56.683,435.94,Korea,WAMIS Open API
130,1007606,Anseongsi(Duhyeongyo),죽산천,37.07138888888889,127.41416666666667,87.003,24.23,Korea,WAMIS Open API
131,1007608,Icheonsi(Godanggyo),석원천,37.096944444444446,127.53972222222222,65.861,47.83,Korea,WAMIS Open API
132,1007610,Eumseunggun(Chongcheongyo),응천,37.07083333333334,127.60444444444444,67.13,99.5,Korea,WAMIS Open API
133,1007615,Yeojusi(Wonbugyo),청미천,37.16222222222222,127.63444444444445,50.945,519.53,Korea,WAMIS Open API
134,1007617,Yeojusi(Samhapgyo),청미천,37.202222222222225,127.71916666666667,42.076,588.93,Korea,WAMIS Open API
135,1007620,Yeojusi(Gangcheonri),한강,37.23111111111111,127.71388888888889,38.4,10932.81,Korea,WAMIS Open API
136,1007625,Yeojusi(Namhanganggyo),한강,37.254444444444445,127.68111111111112,36.292,10947.38,Korea,WAMIS Open API
137,1007626,Yeojusi(Yongeungyo),양화천,37.27583333333333,127.55111111111111,38.853,146.67,Korea,WAMIS Open API
138,1007630,,,37.183055555555555,127.68666666666667,,,Korea,WAMIS Open API
139,1007633,,한강,37.27305555555555,127.68333333333334,0.0,10947.42,Korea,WAMIS Open API
140,1007634,,한강,37.28388888888889,127.68472222222222,0.0,10948.57,Korea,WAMIS Open API
141,1007635,Yeojusi(Yeojudaegyo),한강,37.296388888888885,127.64777777777779,32.529,11114.18,Korea,WAMIS Open API
142,1007637,Yeojusi(Dangugyo),금당천,37.327222222222225,127.68277777777779,40.41,62.14,Korea,WAMIS Open API
143,1007639,,한강,37.32611111111112,127.61555555555555,0.0,11145.11,Korea,WAMIS Open API
144,1007640,Yeojusi(Yulgkukgyo),양화천,37.33388888888889,127.57333333333332,32.057,177.33,Korea,WAMIS Open API
145,1007641,,한강,37.328611111111115,127.60333333333332,0.0,11150.3,Korea,WAMIS Open API
146,1007642,Icheonsi(Dongsangyo),복하천,37.21666666666667,127.41611111111112,58.99,73.24,Korea,WAMIS Open API
147,1007645,Icheonsi(Bokhagyo),복하천,37.26694444444444,127.46083333333334,46.418,165.54,Korea,WAMIS Open API
148,1007649,,,37.46416666666667,127.54305555555555,,,Korea,WAMIS Open API
149,1007650,Yeojusi(Heungcheondaegyo),복하천,37.33305555555556,127.53527777777778,33.536,294.78,Korea,WAMIS Open API
150,1007653,Deapyeong,,37.4225,127.62972222222221,,6.94,Korea,WAMIS Open API
151,1007655,Yeojusi(Yangcheongyo),곡수천,37.3825,127.56277777777777,30.136,54.37,Korea,WAMIS Open API
152,1007656,,,37.38111111111111,127.54972222222221,0.0,11803.0,Korea,WAMIS Open API
153,1007660,Yeojusi(Ipodaegyo),한강,37.401111111111106,127.5375,26.105,11756.48,Korea,WAMIS Open API
154,1007662,,한강,37.401111111111106,127.53777777777778,0.0,11774.88,Korea,WAMIS Open API
155,1007664,,한강,37.40833333333333,127.54138888888889,0.0,11776.03,Korea,WAMIS Open API
156,1007672,Geumsa,,37.38861111111111,127.4888888888889,,8.37,Korea,WAMIS Open API
157,1007680,Yangpyeonggun(Heukcheongyo),흑천,37.46611111111111,127.5275,32.286,307.44,Korea,WAMIS Open API
158,1007685,Yangpyeonggun(Yangpyeonggyo),한강,37.48638888888889,127.49,19.558,12207.55,Korea,WAMIS Open API
159,1007687,yangpyeonggun(Yeomulgyo),흑천,37.555,127.70805555555556,108.11,47.24,Korea,WAMIS Open API
160,1007690,Yangpyeonggun(Bongsanggyo),흑천,37.51166666666666,127.65138888888889,78.78,164.03,Korea,WAMIS Open API
161,1007697,Yangpyeong(sinwonri),한강,37.525,127.37138888888889,24.29,12363.05,Korea,WAMIS Open API
162,1009650,Hwacheongun(Pyeonghwauidam),북한강,38.21027777777778,127.84444444444443,,3227.0,Korea,WAMIS Open API
163,1009652,Hwacheongun(Pyeonghwanaraegyo),북한강,38.20805555555556,127.84944444444444,,3227.0,Korea,WAMIS Open API
164,1010630,Yak Su Kyo,서천,38.1675,128.04305555555555,248.93,167.07,Korea,WAMIS Open API
165,1010633,Yanggugun(Songcheongje2gyo),양구서천,38.08861111111111,127.99694444444445,187.22,142.4,Korea,WAMIS Open API
166,1010635,,,38.10777777777778,127.98416666666667,,,Korea,WAMIS Open API
167,1010640,Yanggugun(Gaksigyo),수입천,38.19027777777777,127.92555555555556,223.61,293.4,Korea,WAMIS Open API
168,1010642,,,38.183055555555555,127.90138888888889,,,Korea,WAMIS Open API
169,1010660,Hwacheongun(Hwacheondam),북한강,38.1175,127.77722222222222,0.268,4084.78,Korea,WAMIS Open API
170,1010661,HwacheonDam,,38.11666666666667,127.78333333333333,,3846.0,Korea,WAMIS Open API
171,1010670,Hwacheongun(Ojakgyo),북한강,38.285,127.81194444444444,166.08,3590.0,Korea,WAMIS Open API
172,1010673,Hwacheongun(Sindaegyo),파포천,38.13361111111111,127.6763888888889,128.28,97.37,Korea,WAMIS Open API
173,1010674,Hwacheongun(Sineupgyo),화천천,38.11944444444445,127.69722222222222,108.293,131.85,Korea,WAMIS Open API
174,1010675,Hwacheon,북한강,38.1,127.71666666666667,98.043,,Korea,WAMIS Open API
175,1010677,,,38.10888888888889,127.70444444444445,,,Korea,WAMIS Open API
176,1010680,Hwacheongun(Hwacheondaegyo),북한강,38.098333333333336,127.70805555555556,98.139,1584.0,Korea,WAMIS Open API
177,1010684,,,38.10888888888889,127.63694444444445,,,Korea,WAMIS Open API
178,1010686,Hwacheongun(Ilgwanggyo),지촌천,38.06083333333333,127.52638888888889,257.776,62.39,Korea,WAMIS Open API
179,1010688,ChuncheonDam,,37.96666666666667,127.67083333333333,,4620.0,Korea,WAMIS Open API
180,1010690,Chuncheonsi(Chuncheondam),북한강,37.968611111111116,127.66833333333334,-0.022,4859.74,Korea,WAMIS Open API
181,1010695,Seowon,북한강,37.95944444444445,127.67583333333334,71.811,4867.3,Korea,WAMIS Open API
182,1011620,Injegun(Banwolchongyo),인북천,38.26444444444444,128.2036111111111,306.678,330.83,Korea,WAMIS Open API
183,1011640,Injegun(Sipisunnyugyo),북천,38.18388888888889,128.3011111111111,302.349,186.06,Korea,WAMIS Open API
184,1011650,BukCheon,북천,38.135555555555555,128.23333333333332,231.81,304.1,Korea,WAMIS Open API
185,1011690,Injegun(Weontongri),인북천,38.12083333333334,128.20944444444444,218.337,531.0,Korea,WAMIS Open API
186,1011693,Injegun(Dorichongyo),,38.097500000000004,128.20694444444445,227.837,,Korea,WAMIS Open API
187,1011695,Injegun(livingstongyo),인북천,38.08833333333334,128.18333333333334,192.943,892.66,Korea,WAMIS Open API
188,1012625,Hongcheongun(Gadeokgyo),내린천,37.83416666666667,128.40805555555556,501.695,294.13,Korea,WAMIS Open API
189,1012630,Injegun(Waeongseongdonggyo),내린천,37.871944444444445,128.3227777777778,373.813,390.65,Korea,WAMIS Open API
190,1012635,Injegun(Yanggigyo),방내천,37.876666666666665,128.28833333333333,340.511,162.24,Korea,WAMIS Open API
191,1012638,Injegun(Jindong2gyo),방태천,37.963055555555556,128.40333333333334,382.686,112.82,Korea,WAMIS Open API
192,1012639,Injegun(Seohogyo),내린천,37.94305555555555,128.3127777777778,282.173,609.13,Korea,WAMIS Open API
193,1012640,Injegun(Hyeonrigyo),방태천,37.948055555555555,128.31722222222223,285.965,194.2,Korea,WAMIS Open API
194,1012645,Injegun(Hajukjeonggyo),소양강,37.97694444444445,128.30805555555557,261.206,857.81,Korea,WAMIS Open API
195,1012650,Injegun(Weondaegyo),소양강,38.00805555555556,128.2408333333333,230.334,1039.1,Korea,WAMIS Open API
196,1012657,Injegun(Sagumigyo),,38.055277777777775,128.16833333333332,182.425,1993.6,Korea,WAMIS Open API
197,1012660,,소양강,38.016666666666666,128.13333333333333,142.736,,Korea,WAMIS Open API
198,1012665,,소양강,38.03333333333333,128.15,,,Korea,WAMIS Open API
199,1012670,Injegun(Yanggudaegyo),소양강,37.99388888888889,128.05666666666667,0.0,2294.3,Korea,WAMIS Open API
200,1012680,Chuncheonsi(Soyanggangdam),소양강,37.94916666666666,127.81527777777778,0.0,2703.0,Korea,WAMIS Open API
201,1012682,Chuncheonsi(Soyanggangdambangsuro),소양강,37.94416666666666,127.81083333333333,0.0,2703.0,Korea,WAMIS Open API
202,1012685,Chuncheonsi(Cheonjeonri),소양강,37.930277777777775,127.78972222222222,76.049,2704.61,Korea,WAMIS Open API
203,1012688,,,37.92583333333333,127.77888888888889,,,Korea,WAMIS Open API
204,1012690,Soyanggang,,37.91777777777777,127.78416666666666,,,Korea,WAMIS Open API
205,1012695,,북한강,37.890277777777776,127.72472222222223,,,Korea,WAMIS Open API
206,1013610,Chuncheonsi(Hyojagyo),공지천,37.8675,127.7275,67.784,47.78,Korea,WAMIS Open API
207,1013620,Mok Dong Kyo,가평천,37.88305555555556,127.54833333333333,98.689,305.38,Korea,WAMIS Open API
208,1013635,UiamDam,,37.838055555555556,127.67361111111111,,7596.0,Korea,WAMIS Open API
209,1013637,Chuncheonsi(Soyang2gyo),북한강,37.893055555555556,127.7225,0.012,7707.18,Korea,WAMIS Open API
210,1013643,Chuncheonsi(Palmi3gyo),팔미천,37.82,127.70138888888889,76.568,56.55,Korea,WAMIS Open API
211,1013645,Chuncheonsi(Gangchongyo),북한강,37.8175,127.63361111111112,52.497,7919.06,Korea,WAMIS Open API
212,1013650,Gapyeonggun(Jeryeonggyo),가평천,37.89527777777778,127.53027777777778,100.456,137.71,Korea,WAMIS Open API
213,1013651,Gapyeonggun(Hwaakgyo),화악천,37.92111111111111,127.56638888888888,133.66,47.91,Korea,WAMIS Open API
214,1013652,,,37.874722222222225,127.52777777777777,,,Korea,WAMIS Open API
215,1013655,Gapyeonggun(Gapyeonggyo),가평천,37.831388888888895,127.51805555555555,51.857,303.92,Korea,WAMIS Open API
216,1014618,Hongcheongun(Yonghodaegyo),내촌천,37.769999999999996,128.15333333333334,240.081,219.31,Korea,WAMIS Open API
217,1014620,Hongcheongun(Yongsungyo),내촌천,37.81333333333333,128.0652777777778,184.738,314.77,Korea,WAMIS Open API
218,1014622,Hongcheongun(Jidachigyo),,37.819722222222225,128.005,165.85,149.72,Korea,WAMIS Open API
219,1014630,Hongcheongun(Jueumchigyo),홍천강,37.78444444444444,127.98333333333333,152.147,522.76,Korea,WAMIS Open API
220,1014635,,,37.763333333333335,127.97416666666666,,,Korea,WAMIS Open API
221,1014637,Hongcheongun(Guneob1gyo),군업천,37.75333333333333,128.00194444444443,159.983,67.06,Korea,WAMIS Open API
222,1014640,Hongcheongun(Gyulwungyo),홍천강,37.73861111111111,127.9413888888889,131.685,724.83,Korea,WAMIS Open API
223,1014645,Hongcheongun(Gwimitteulgyo),덕치천,37.69638888888888,127.94250000000001,146.916,50.59,Korea,WAMIS Open API
224,1014648,,,37.68611111111111,127.88972222222223,,,Korea,WAMIS Open API
225,1014650,Hongcheongun(Hongcheongyo),,37.68722222222222,127.87888888888888,119.731,880.32,Korea,WAMIS Open API
226,1014652,Hongcheongun(Hwagyegyo),성동천,37.70472222222222,127.85555555555555,119.699,57.64,Korea,WAMIS Open API
227,1014664,Hongcheongun(Yongsugyo),양덕원천,37.65972222222222,127.76583333333333,97.712,91.39,Korea,WAMIS Open API
228,1014665,Hongcheongun(Namnoildeagyo),홍천강,37.67527777777777,127.77055555555556,89.282,1123.52,Korea,WAMIS Open API
229,1014680,Hongcheongun(Bangokgyo),홍천강,37.69361111111111,127.67055555555557,68.288,1327.78,Korea,WAMIS Open API
230,1014690,Chuncheonsi(Chunguidaegyo),,37.725833333333334,127.58888888888889,45.033,1504.99,Korea,WAMIS Open API
231,1014695,,,37.67222222222222,127.61333333333333,,,Korea,WAMIS Open API
232,1014696,Hongcheongun(Mogokgyo),중방대천,37.67194444444444,127.60499999999999,56.276,86.83,Korea,WAMIS Open API
233,1015611,Gapyeongun(Sinsanggyo),조종천,37.84527777777778,127.35555555555555,134.149,63.42,Korea,WAMIS Open API
234,1015620,Gapyeonggun(Daebogyo),조종천,37.79611111111111,127.37083333333332,99.531,156.76,Korea,WAMIS Open API
235,1015630,San Jang 1 Kyo,조종천,37.755,127.41027777777778,58.96,212.2,Korea,WAMIS Open API
236,1015636,Gapyeongun(Seonchon2gyo),미원천,37.681666666666665,127.48583333333333,50.57,39.67,Korea,WAMIS Open API
237,1015639,CheongpyungDam,,37.72083333333334,127.42444444444445,,9864.0,Korea,WAMIS Open API
238,1015640,Gapyeonggun(Cheongpyeongdam),북한강,37.723333333333336,127.42305555555556,0.67,10103.16,Korea,WAMIS Open API
239,1015644,Gapyeonggun(Cheongpyeonggyo),조종천,37.73416666666667,127.41444444444446,31.222,258.08,Korea,WAMIS Open API
240,1015645,Gapyeonggun(Daeseongri),북한강,37.71805555555556,127.41027777777778,22.612,10373.39,Korea,WAMIS Open API
241,1015655,Gapyeonggun(Oryudonggyo),구운천,37.69305555555555,127.36555555555555,36.056,84.71,Korea,WAMIS Open API
242,1015680,Sambong,북한강,37.59527777777778,127.33916666666666,24.422,709.14,Korea,WAMIS Open API
243,1016601,Yonginsi(Majeongyo),양지천,37.2325,127.2375,89.242,20.97,Korea,WAMIS Open API
244,1016606,Gwangjusi(Dongrim3gyo),오산천,37.341944444444444,127.19861111111112,71.418,24.47,Korea,WAMIS Open API
245,1016607,Yonginsi(WolChongyo),한강,37.3325,127.23944444444444,49.553,149.43,Korea,WAMIS Open API
246,1016645,Gwangjusi(Opodaegyo),경안천,37.370555555555555,127.23972222222223,40.452,222.23,Korea,WAMIS Open API
247,1016650,Gwangjusi(Gyeongangyo),경안천,37.406666666666666,127.26305555555555,34.106,261.82,Korea,WAMIS Open API
248,1016651,Gwangjusi(Pabalgyo),목현천,37.41416666666667,127.25694444444444,35.357,21.03,Korea,WAMIS Open API
249,1016655,Kyoung An Kyo,경안천,37.3925,127.25166666666667,35.616,257.9,Korea,WAMIS Open API
250,1016660,Gwangjusi(Sumthlgyo),곤지암천,37.399166666666666,127.29277777777777,36.123,154.67,Korea,WAMIS Open API
251,1016670,Gwangjusi(Seohagyo),경안천,37.428888888888885,127.30833333333334,26.762,458.49,Korea,WAMIS Open API
252,1016695,Gwangjusi(Gwangdonggyo),경안천,37.471111111111114,127.29416666666667,-0.057,514.38,Korea,WAMIS Open API
253,1017678,PaldangDam,,37.525,127.28472222222221,,23517.0,Korea,WAMIS Open API
254,1017690,Namyangjusi(Paldangdam),한강,37.52722222222222,127.28333333333333,0.009,23756.43,Korea,WAMIS Open API
255,1018605,,한강,37.541666666666664,127.25,10.0,,Korea,WAMIS Open API
256,1018610,Namyangjusi(Paldangdaegyo),한강,37.547777777777775,127.23944444444444,5.571,23768.42,Korea,WAMIS Open API
257,1018611,Paldangdaegyo,한강,37.544444444444444,127.24138888888889,10.876,,Korea,WAMIS Open API
258,1018619,Pocheonsi(Mamyeong1gyo),왕숙천,37.78111111111111,127.20666666666666,87.903,39.13,Korea,WAMIS Open API
259,1018620,Namyangjusi(Bupyeonggyo),왕숙천,37.74027777777778,127.19666666666667,56.285,94.97,Korea,WAMIS Open API
260,1018623,Namyangjusi(Yeonpyeongdaegyo),진건천,37.71,127.18222222222222,44.501,25.87,Korea,WAMIS Open API
261,1018625,Namyangjusi(Naegokgyo),왕숙천,37.69166666666666,127.16472222222222,33.497,150.77,Korea,WAMIS Open API
262,1018628,,창릉천,37.59861111111111,126.81055555555555,,,Korea,WAMIS Open API
263,1018630,Namyangjusi(Jingwangyo),왕숙천,37.65,127.15194444444445,22.349,201.5,Korea,WAMIS Open API
264,1018635,Namyangjusi(Toegyewonri),용암천,37.644999999999996,127.13805555555557,21.486,47.31,Korea,WAMIS Open API
265,1018638,Namyangjusi(Wangsukgyo),왕숙천,37.603611111111114,127.14805555555556,10.336,266.39,Korea,WAMIS Open API
266,1018640,Seoul(Gwangjingyo),한강,37.54555555555555,127.11027777777777,5.284,24214.52,Korea,WAMIS Open API
267,1018645,,한강,37.524166666666666,127.07805555555555,2.492,,Korea,WAMIS Open API
268,1018650,Seongnamsi(Gungnaegyo),탄천,37.37,127.10833333333333,33.094,81.07,Korea,WAMIS Open API
269,1018653,Seongnamsi(Dunjeongyo),탄천,37.42805555555555,127.11722222222221,15.347,147.12,Korea,WAMIS Open API
270,1018655,Seoul(Daegokgyo),탄천,37.46888888888889,127.12249999999999,9.555,203.85,Korea,WAMIS Open API
271,1018658,Seoul(Daechigyo),양재천,37.498333333333335,127.07444444444444,4.464,61.49,Korea,WAMIS Open API
272,1018660,,한강,37.519444444444446,127.06388888888888,2.7,,Korea,WAMIS Open API
273,1018661,Yangjusi(Majeon3gyo),중랑천,37.77861111111111,127.04861111111111,44.893,13.77,Korea,WAMIS Open API
274,1018662,Seoul(Chungdamdaegyo),한강,37.52305555555555,127.06277777777777,1.747,24559.74,Korea,WAMIS Open API
275,1018664,,,37.53333333333333,127.05,,,Korea,WAMIS Open API
276,1018665,Uijeongbusi(Singokgyo),중랑천,37.73527777777778,127.05333333333333,33.058,80.4,Korea,WAMIS Open API
277,1018666,Uijeongbusi(Geumshingyo),부용천,37.74722222222222,127.05916666666667,33.952,135.73,Korea,WAMIS Open API
278,1018669,Seoul(changdonggyo),중랑천,37.65277777777778,127.05416666666666,14.618,139.94,Korea,WAMIS Open API
279,1018670,Seoul(Wallgae2gyo),우이천,37.62416666666667,127.05,16.359,23.37,Korea,WAMIS Open API
280,1018675,Seoul(Jungranggyo),중랑천,37.5925,127.07055555555556,9.165,208.53,Korea,WAMIS Open API
281,1018680,Seoul(Jamsugyo),한강,37.51722222222222,126.99527777777777,-0.068,24893.0,Korea,WAMIS Open API
282,1018683,Seoul(Hangangdaegyo),한강,37.51444444444444,126.95666666666666,2.07,24922.54,Korea,WAMIS Open API
283,1018685,,한강,37.516666666666666,126.95,1.282,,Korea,WAMIS Open API
284,1018686,Seoulsi(Hongnamgyo),홍제천,37.57527777777778,126.9263888888889,14.859,18.95,Korea,WAMIS Open API
285,1018690,Anyangsi(Chunghoon1gyo),안양천,37.40472222222222,126.90305555555557,16.85,111.52,Korea,WAMIS Open API
286,1018692,Seoulsi(Shinrim5gyo),도림천,37.467222222222226,126.9475,47.946,6.59,Korea,WAMIS Open API
287,1018693,Gwangmyeongsi(Sihuengdaegyo),안양천,37.452222222222225,126.89333333333335,6.369,139.86,Korea,WAMIS Open API
288,1018695,Seoul(Nerbudaegyo),,37.47888888888889,126.84555555555555,7.367,45.66,Korea,WAMIS Open API
289,1018697,Seoul(Ogmgyo),안양천,37.50833333333333,126.87416666666665,2.996,215.11,Korea,WAMIS Open API
290,1018698,Seoulsi(Shindaebang1gyo),도림천,37.488055555555555,126.91444444444446,12.086,28.48,Korea,WAMIS Open API
291,1019606,Goyangsi(Eundeokgyo),창릉천,37.645833333333336,126.9213888888889,20.423,30.36,Korea,WAMIS Open API
292,1019612,Incheonsi(Gulpo1gyo),굴포천,37.50888888888889,126.72277777777778,3.049,57.78,Korea,WAMIS Open API
293,1019620,Bucheonsi(Doduri2gyo),굴포천,37.532222222222224,126.76055555555556,3.427,59.84,Korea,WAMIS Open API
294,1019630,Seoul(Haengjudaegyo),한강,37.60305555555556,126.81472222222222,0.803,25418.49,Korea,WAMIS Open API
295,1019635,,,37.602222222222224,126.79333333333334,,,Korea,WAMIS Open API
296,1019636,,,37.602222222222224,126.79333333333334,,,Korea,WAMIS Open API
297,1019637,,,37.602222222222224,126.79333333333334,,,Korea,WAMIS Open API
298,1019647,,,37.541666666666664,126.76138888888889,,,Korea,WAMIS Open API
299,1019648,,,37.57333333333334,126.74638888888889,,,Korea,WAMIS Open API
300,1019651,,,37.574444444444445,126.75888888888889,,,Korea,WAMIS Open API
301,1019652,,,37.574444444444445,126.75944444444444,,,Korea,WAMIS Open API
302,1019653,,,37.583333333333336,126.77222222222223,,,Korea,WAMIS Open API
303,1019657,Incheonsi(Sangyagyo),굴포천,37.57916666666667,126.77583333333334,1.767,124.6,Korea,WAMIS Open API
304,1019663,Yangjusi(Jegunggyo),곡릉천,37.69277777777778,126.92750000000001,51.428,56.19,Korea,WAMIS Open API
305,1019667,Goyangsi(Wondanggyo),곡릉천,37.684999999999995,126.86583333333333,20.803,98.0,Korea,WAMIS Open API
306,1019675,Gimposi(Jeonryuri),한강,37.69583333333333,126.66444444444446,-0.1,25647.31,Korea,WAMIS Open API
307,1019680,Pajusi(Gyohagyo),곡릉천,37.76027777777778,126.76138888888889,0.922,199.33,Korea,WAMIS Open API
308,1021628,Cheorwongun(Baengmagyo),,38.26888888888889,127.16055555555556,172.675,240.0,Korea,WAMIS Open API
309,1021630,Cheorwongun(Daemaari),차탄천,38.26833333333333,127.16611111111112,180.631,62.49,Korea,WAMIS Open API
310,1021650,Yeoncheongun(Philseunggyo),임진강,38.111111111111114,126.96083333333334,31.0,4119.73,Korea,WAMIS Open API
311,1021660,Yeoncheon(Gunnamdam),임진강,38.105000000000004,127.01583333333333,,29.4,Korea,WAMIS Open API
312,1021680,Yeoncheongun(Imjingyo),임진강,38.05638888888888,127.0175,17.964,4228.71,Korea,WAMIS Open API
313,1022620,Cheorwongun(Amjunggyo),김화 남대천,38.28666666666666,127.46472222222222,214.782,163.63,Korea,WAMIS Open API
314,1022626,Cheorwongun(Jangsudaegyo),김화 남대천,38.24611111111111,127.37444444444444,193.338,364.64,Korea,WAMIS Open API
315,1022630,Cheorwongun(Samhapgyo),한탄강,38.29388888888889,127.34916666666666,187.152,363.56,Korea,WAMIS Open API
316,1022631,Toe Gyo,,38.27222222222222,127.28888888888889,,23.7,Korea,WAMIS Open API
317,1022635,Cheorwongun(Hangtangdaegyo),한탄강,38.18694444444444,127.29916666666666,125.072,914.1,Korea,WAMIS Open API
318,1022638,Cheorwongun(Guntangyo),한탄강,38.140277777777776,127.28,94.495,,Korea,WAMIS Open API
319,1022640,Pocheonsi(Naengjungri),한탄강,38.12388888888889,127.27194444444444,92.13,1033.83,Korea,WAMIS Open API
320,1022641,Pocheonsi(Je1dopyeonggyo),영평천,38.05083333333333,127.38194444444444,157.406,62.08,Korea,WAMIS Open API
321,1022642,Pochenonsi(Daehoesangyo),한탄강,38.09,127.22055555555556,72.088,,Korea,WAMIS Open API
322,1022643,Pochenonsi(Yeongrodaegyo),한탄강,38.06527777777777,127.20583333333333,62.921,,Korea,WAMIS Open API
323,1022644,Yeoncheon(Hantangangdam),한탄강,38.0625,127.13083333333333,,,Korea,WAMIS Open API
324,1022645,Yeoncheon(Hanyeoulgyo),한탄강,38.06083333333333,127.12916666666666,,,Korea,WAMIS Open API
325,1022646,Pocheonsi(Nangyudaegyo),영평천,38.00055555555556,127.33,101.006,112.04,Korea,WAMIS Open API
326,1022647,Pocheonsi(Pocheondaegyo),포천천,37.8925,127.20194444444445,87.074,107.33,Korea,WAMIS Open API
327,1022648,Pocheonsi(Eunhyungyo),포천천,38.00222222222222,127.23861111111111,61.322,240.36,Korea,WAMIS Open API
328,1022650,Yeongjung,영평천,38.01083333333333,127.21444444444445,56.354,465.99,Korea,WAMIS Open API
329,1022655,Pocheonsi(Sinbaekuigyo),영평천,38.018055555555556,127.14277777777778,44.553,550.92,Korea,WAMIS Open API
330,1022659,,,38.02305555555555,127.13805555555557,,,Korea,WAMIS Open API
331,1022660,Yangjusi(Balun2gyo),신천,37.867777777777775,127.00166666666667,71.992,90.49,Korea,WAMIS Open API
332,1022661,Yeoncheongun(Bomakgyo),차탄천,38.16722222222222,127.10166666666666,74.014,89.98,Korea,WAMIS Open API
333,1022662,Yeoncheongun(chatangyo),차탄천,38.087500000000006,127.07194444444444,47.815,174.88,Korea,WAMIS Open API
334,1022664,,한탄강,38.03666666666666,127.10444444444444,,,Korea,WAMIS Open API
335,1022665,Yeoncheon(Gungsingyo),한탄강,38.03611111111111,127.10388888888889,32.734,2452.2,Korea,WAMIS Open API
336,1022666,Yeoncheon(Gotangyo),한탄강,38.03138888888889,127.0761111111111,62.921,,Korea,WAMIS Open API
337,1022668,Dongduchensi(songcheongyo),,37.88027777777778,127.05138888888888,57.033,169.31,Korea,WAMIS Open API
338,1022670,Yeoncheongun(Sincheongyo),,37.99305555555556,127.07694444444444,27.429,329.01,Korea,WAMIS Open API
339,1022680,Yeoncheongun(Saranggyo),,38.009166666666665,127.05638888888889,19.806,2236.02,Korea,WAMIS Open API
340,1023635,Pajusi(Dukcheongyo),눌노천,37.93416666666666,126.86472222222221,14.152,47.9,Korea,WAMIS Open API
341,1023640,Yeoncheongun(Samhwagyo),임진강,38.025277777777774,126.98333333333333,5.374,6728.92,Korea,WAMIS Open API
342,1023660,Jeogseong,임진강,37.98527777777778,126.91916666666667,7.428,6799.92,Korea,WAMIS Open API
343,1023662,Yeoncheongun(Samicheongyo),사미천,38.00333333333333,126.87833333333333,6.592,409.79,Korea,WAMIS Open API
344,1023667,Pajusi(Jeonjingyo),임진강,37.90611111111111,126.82055555555556,-4.13,7342.32,Korea,WAMIS Open API
345,1023670,Pajusi(Tongildaegyo),임진강,37.904444444444444,126.74166666666667,0.302,7489.67,Korea,WAMIS Open API
346,1023671,Pajusi(Sinwoogyo),문산천,37.77361111111111,126.88527777777779,56.525,25.27,Korea,WAMIS Open API
347,1023674,Pajusi(Manjanggyo),문산천,37.80555555555555,126.86194444444443,20.42,64.16,Korea,WAMIS Open API
348,1023680,Pajusi(Agamaegyo),문산천,37.82138888888889,126.78388888888888,2.072,148.53,Korea,WAMIS Open API
349,1101601,Suwonsi(Maesegyo),수원천,37.268055555555556,127.01583333333333,29.754,15.37,Korea,WAMIS Open API
350,1101604,Suwonsi(Baeknyungyo),원천리천,37.25083333333333,127.0425,20.619,33.85,Korea,WAMIS Open API
351,1101605,Hwaseongsi(Hwasangyo),황구지천,37.217777777777776,127.02027777777778,12.231,150.22,Korea,WAMIS Open API
352,1101609,Geumgwang,,36.9975,127.32888888888888,,48.3,Korea,WAMIS Open API
353,1101610,Anseongsi(Anseongdaegyo),안성천,37.00138888888889,127.25027777777778,18.667,116.91,Korea,WAMIS Open API
354,1101611,Anseongsi(Pyeongchongyo),한천,37.074444444444445,127.26,30.671,72.33,Korea,WAMIS Open API
355,1101615,Gosam,,37.08166666666667,127.27194444444444,,71.0,Korea,WAMIS Open API
356,1101616,Anseongsi(Gojigyo),청룡천,36.96472222222223,127.21194444444444,11.561,49.72,Korea,WAMIS Open API
357,1101618,Anseongsi(Hancheongyo),한천,36.989444444444445,127.20555555555556,8.91,157.09,Korea,WAMIS Open API
358,1101620,Anseongsi(Guncheonri),안성천,36.97361111111111,127.1825,8.321,367.78,Korea,WAMIS Open API
359,1101621,Yonginsi(Deokseong1gyo),송전천,37.1725,127.19972222222222,57.2,41.53,Korea,WAMIS Open API
360,1101625,I Dong,,37.11027777777778,127.18444444444445,,93.0,Korea,WAMIS Open API
361,1101628,Chuncheonsi(Angunggyo),입장천,36.964444444444446,127.13972222222223,-0.98,80.16,Korea,WAMIS Open API
362,1101630,Cheonansi(Anseongcheongyo),안성천,36.97027777777778,127.11083333333333,3.761,490.64,Korea,WAMIS Open API
363,1101631,Cheonansi(Jangcheongyo),성환천,36.922777777777775,127.1211111111111,7.359,54.94,Korea,WAMIS Open API
364,1101635,Pyeongtaek,안성천,36.98361111111111,127.08,0.129,591.49,Korea,WAMIS Open API
365,1101645,Osansi(Tapdongdaegyo),오산천,37.13388888888889,127.05805555555555,10.736,130.65,Korea,WAMIS Open API
366,1101650,Hwaseongsi(Sujikgyo),황구지천,37.12361111111111,126.99972222222222,4.333,238.54,Korea,WAMIS Open API
367,1101656,Yonginsi(Jeongunggyo),진위천,37.11083333333333,127.1525,18.97,135.73,Korea,WAMIS Open API
368,1101663,Pyeongtaeksi(Jinwi1gyo),진위천,37.095,127.05222222222221,5.334,202.06,Korea,WAMIS Open API
369,1101665,Pyeongtaeksi(Hoehwari),진위천,37.096111111111114,127.02888888888889,4.977,356.28,Korea,WAMIS Open API
370,1101670,Dongyeongyo,진위천,37.052499999999995,126.9975,-0.283,652.69,Korea,WAMIS Open API
371,1101675,,진위천,37.016666666666666,127.01666666666667,0.717,705.6,Korea,WAMIS Open API
372,1101680,Pyeongtaeksi(Paeongseongdaegyo),안성천,36.97805555555556,127.03361111111111,0.296,1407.38,Korea,WAMIS Open API
373,1101685,,,36.96805555555556,126.97583333333334,,,Korea,WAMIS Open API
374,1101688,Asansi(Ungyogyo),둔포천,36.91777777777777,127.03861111111111,1.375,40.24,Korea,WAMIS Open API
375,1101690,,안성천,36.93333333333333,127.0,-2.516,,Korea,WAMIS Open API
376,1101695,,,36.980000000000004,126.92805555555556,,,Korea,WAMIS Open API
377,1101696,,,36.980000000000004,126.92805555555556,,,Korea,WAMIS Open API
378,1201620,Ganghwagun(Ganghwadaegyo),한강,37.73166666666667,126.52777777777777,0.135,0.0,Korea,WAMIS Open API
379,1201651,,,37.56111111111111,126.60416666666666,,,Korea,WAMIS Open API
380,1201652,,,37.56055555555555,126.60305555555556,,,Korea,WAMIS Open API
381,1201653,,,37.56027777777778,126.60138888888888,,,Korea,WAMIS Open API
382,1201654,,,37.56111111111111,126.60277777777777,,,Korea,WAMIS Open API
383,1201660,Incheonsi(Yeonsugyo),승기천,37.416666666666664,126.69583333333334,-1.845,20.94,Korea,WAMIS Open API
384,1202630,Banwol2,반월천,37.348333333333336,126.875,35.374,1.5,Korea,WAMIS Open API
385,1202650,Ansansi(Ansan10gyo),안산천,37.31472222222222,126.8425,-1.522,89.98,Korea,WAMIS Open API
386,1202660,Banwol1,반월천,37.32277777777778,126.85694444444444,10.475,1.48,Korea,WAMIS Open API
387,1202668,Hwaseongsi(Balancheon2gyo),발안천,37.11666666666667,126.89,1.596,42.52,Korea,WAMIS Open API
388,1202670,,,37.00055555555556,126.8,,,Korea,WAMIS Open API
389,1301625,Sokchosi(Domungyo),쌍천,38.164722222222224,128.54527777777778,80.674,60.82,Korea,WAMIS Open API
390,1301630,Yangyanggun(Yongcheon2gyo),양양남대천,38.05555555555555,128.60805555555555,6.868,191.38,Korea,WAMIS Open API
391,1301632,Yangyanggun(Bukpyeonggyo),후천,38.071111111111115,128.60777777777778,4.742,240.95,Korea,WAMIS Open API
392,1301658,Yangyanggun(Yangyangdaegyo),양양남대천,38.07527777777778,128.63166666666666,0.502,454.75,Korea,WAMIS Open API
393,1302645,Obong,,37.69888888888889,128.81972222222223,,109.0,Korea,WAMIS Open API
394,1302646,Gangneungsi(Obonggyo),강릉남대천,37.709722222222226,128.82361111111112,55.628,111.6,Korea,WAMIS Open API
395,1302648,Gangryungsi(Hoesangyo),강릉남대천,37.74305555555556,128.87,15.631,183.95,Korea,WAMIS Open API
396,1302663,Donghaesi(Dalbangdam),신흥천,37.50611111111111,129.03805555555556,,2452.2,Korea,WAMIS Open API
397,1302665,Donghaesi(Wonpyunggyo),,37.494166666666665,129.06805555555556,,,Korea,WAMIS Open API
398,1302668,Donghaesi(Bukpyeonggyo),전천,37.48527777777778,129.125,0.192,111.7,Korea,WAMIS Open API
399,1302670,Gangneungsi(Songrimgyo),연곡천,37.846944444444446,128.81055555555557,3.023,155.68,Korea,WAMIS Open API
400,1303610,Samcheoksi(Namyangcheongyo),가곡천,37.14333333333333,129.2602777777778,49.176,190.06,Korea,WAMIS Open API
401,1303640,Samcheoksi(Jeondugyo),삼척오십천,37.22416666666667,129.0425,239.208,33.9,Korea,WAMIS Open API
402,1303650,Samcheoksi(Sangjeonggyo),,37.382777777777775,129.09861111111113,43.024,272.8,Korea,WAMIS Open API
403,1303680,Samcheoksi(Osipcheongyo),,37.43805555555555,129.16805555555555,-1.75,372.73,Korea,WAMIS Open API
404,2001608,Taebaeksi(Boduemigyo),황지천,37.10388888888889,129.00611111111112,574.914,122.08,Korea,WAMIS Open API
405,2001610,Taebaeksi(Munhwagyo),황지천,37.09583333333334,129.01722222222224,550.39,126.33,Korea,WAMIS Open API
406,2001613,Taebaeksi(Lusagyo),,37.093333333333334,129.04444444444445,518.78,,Korea,WAMIS Open API
407,2001615,Bonghwagun(Daehyeongyo),낙동강,37.06388888888888,129.04416666666665,485.47,200.0,Korea,WAMIS Open API
408,2001625,Bonghwagun(Gwanghoegyo),회룡천,36.93416666666666,129.11027777777778,409.488,119.96,Korea,WAMIS Open API
409,2001628,Bonghwagun(BunCheongyo),낙동강,36.930277777777775,129.05666666666667,317.71,510.53,Korea,WAMIS Open API
410,2001629,Bonghwagun(Hyeondonggyo),,36.93194444444444,129.0113888888889,284.731,,Korea,WAMIS Open API
411,2001630,Bonghwagun(Imgiri),낙동강,36.88333333333333,129.0011111111111,250.079,696.8,Korea,WAMIS Open API
412,2001640,Bonghwagun(Je1Hyeondonggyo),현동천,36.941111111111105,129.00055555555556,309.319,102.49,Korea,WAMIS Open API
413,2001650,Bonghwa,낙동강,35.84166666666667,128.89166666666665,192.324,712.5,Korea,WAMIS Open API
414,2001655,Bonghwagun(Docheongyo),운곡천,36.85944444444445,128.90194444444444,197.233,232.49,Korea,WAMIS Open API
415,2001658,Andongsi(Yangsamgyo),낙동강,36.77861111111111,128.88555555555556,173.107,1148.0,Korea,WAMIS Open API
416,2001660,DO SAN,,36.760555555555555,128.89638888888888,169.09,1163.0,Korea,WAMIS Open API
417,2001668,Andongsi(Munmigyo),동계천,36.67583333333333,128.90694444444446,157.866,71.87,Korea,WAMIS Open API
418,2001680,Andongsi(Andongdambangsuro),낙동강,36.58444444444444,128.7711111111111,,1584.0,Korea,WAMIS Open API
419,2001685,Andongsi(Andongdam),낙동강,36.58277777777778,128.775,,1584.0,Korea,WAMIS Open API
420,2001690,Andongsi(Andongjojeongjidam),낙동강,36.56638888888889,128.74916666666667,,1584.0,Korea,WAMIS Open API
421,2002604,Yeongyanggun(Seomchongyo),반변천,36.706944444444446,129.13861111111112,262.383,166.99,Korea,WAMIS Open API
422,2002606,BoHyun,,36.22166666666667,128.95083333333332,346.371,18.3,Korea,WAMIS Open API
423,2002607,Yeongyanggun(Songjeonggyo),장파천,36.71138888888889,129.185,318.117,60.24,Korea,WAMIS Open API
424,2002609,Cheongsonggun(Seongdeokdam),보현천,36.24194444444444,128.96305555555554,332.0,,Korea,WAMIS Open API
425,2002610,MuGye,,36.217222222222226,128.97472222222223,361.519,4.0,Korea,WAMIS Open API
426,2002613,Pohangsi(Sangsa4gyo),병보천,36.25361111111111,129.08861111111113,346.747,19.6,Korea,WAMIS Open API
427,2002616,Cheongsonggun(Myoungdangri),보현천,36.28527777777778,128.95694444444445,274.047,,Korea,WAMIS Open API
428,2002618,Yeongyanggun(Origyo),반변천,36.733333333333334,129.1483333333333,282.087,91.96,Korea,WAMIS Open API
429,2002620,Yeongyanggun(Yangpyeonggyo),반변천,36.653055555555554,129.1063888888889,209.776,334.0,Korea,WAMIS Open API
430,2002630,Cheongsonggun(Songgang2gyo),용전천,36.48388888888889,129.02166666666668,157.194,397.8,Korea,WAMIS Open API
431,2002633,Yeongyanggun(Imcheongyo),동천,36.614444444444445,129.06722222222223,190.84,142.7,Korea,WAMIS Open API
432,2002634,Yeongyanggun(Cheongamgyo),반변천,36.59722222222222,129.08555555555557,181.105,475.49,Korea,WAMIS Open API
433,2002635,Yeongyanggun(Heungguri),반변천,36.54555555555555,129.06583333333336,162.953,666.9,Korea,WAMIS Open API
434,2002636,Heunggu,,36.589444444444446,129.0713888888889,163.704,780.31,Korea,WAMIS Open API
435,2002638,Yeongyanggun(Heunggugyo),,36.551944444444445,129.08083333333332,164.938,,Korea,WAMIS Open API
436,2002640,Yeongyanggun(Seokbogyo),화매천,36.56111111111111,129.11833333333334,181.706,96.22,Korea,WAMIS Open API
437,2002645,Cheongsonggun(Gwangdeokgyo),반변천,36.53611111111111,129.04333333333332,158.391,780.3,Korea,WAMIS Open API
438,2002650,Cheongsonggun(Mapyeonggyo),용전천,36.37277777777778,129.09472222222223,216.522,190.88,Korea,WAMIS Open API
439,2002655,Cheongsonggun(Deokcheongyo),용전천,36.44277777777778,129.0302777777778,172.55,305.0,Korea,WAMIS Open API
440,2002675,Andongsi(Imhadambangsuro),반변천,36.53777777777778,128.88,,1361.0,Korea,WAMIS Open API
441,2002677,Andongsi(Imhadam),반변천,36.535,128.8836111111111,,1361.0,Korea,WAMIS Open API
442,2002680,Andongsi(Imhajojeongjidam),반변천,36.53638888888889,128.8452777777778,,1376.0,Korea,WAMIS Open API
443,2002685,Andongsi(Mukgyegyo),길안천,36.431666666666665,128.91083333333333,136.586,418.79,Korea,WAMIS Open API
444,2002686,Andongsi(Sindeokgyo),길안천,36.51916666666666,128.83861111111113,97.155,515.8,Korea,WAMIS Open API
445,2002687,,,36.53611111111111,128.83583333333334,,,Korea,WAMIS Open API
446,2002692,Andongsi(Pojingyo),반변천,36.53472222222222,128.79527777777778,89.968,1892.0,Korea,WAMIS Open API
447,2002695,Andongsi(Daesa3gyo),길안천,36.36611111111111,128.95916666666665,201.939,332.3,Korea,WAMIS Open API
448,2003610,Andongsi(Andongdeagyo),낙동강,36.55027777777777,128.69972222222222,82.78,3590.0,Korea,WAMIS Open API
449,2003621,Uiseonggun(Mokchongyo),미천,36.42527777777777,128.68277777777777,127.96,183.46,Korea,WAMIS Open API
450,2003625,Andongsi(Songyagyo),송야천,36.5775,128.67277777777778,83.039,102.85,Korea,WAMIS Open API
451,2003635,Geumbong,,36.331944444444446,128.85805555555555,,27.44,Korea,WAMIS Open API
452,2003640,Andongsi(Unsanri),미천,36.47944444444445,128.66,97.458,280.46,Korea,WAMIS Open API
453,2003650,Andongsi(Geomamgyo),미천,36.54083333333333,128.65694444444446,76.199,374.8,Korea,WAMIS Open API
454,2003658,Andongsi(Chodonggyo),풍산천,36.57666666666667,128.57638888888889,75.42,36.63,Korea,WAMIS Open API
455,2003670,Yecheongun(Gudamgyo),낙동강,36.53944444444444,128.46305555555554,58.82,4341.57,Korea,WAMIS Open API
456,2003674,Andongsi(Sinseong2gyo),광산천,36.521388888888886,128.44861111111112,56.988,90.52,Korea,WAMIS Open API
457,2003690,Uiseonggun(Pungjigyo),낙동강,36.53,128.36499999999998,51.321,4516.9,Korea,WAMIS Open API
458,2004604,Bonghwagun(Samgye1gyo),내성천,36.9,128.73416666666665,190.702,82.09,Korea,WAMIS Open API
459,2004605,Bonghwagun(Bonghwadaegyo),내성천,36.8875,128.73194444444445,184.12,156.77,Korea,WAMIS Open API
460,2004607,Gyeong Cheon,,36.69583333333333,128.3138888888889,,91.5,Korea,WAMIS Open API
461,2004608,Yeongjusi(Sinamgyo),내성천,36.85277777777778,128.68694444444444,164.072,,Korea,WAMIS Open API
462,2004610,Yeongjusi(Yeongjuyusajojeolji),,36.78444444444444,128.70027777777776,0.0,,Korea,WAMIS Open API
463,2004615,Yeongjusi(Ansimgyo),서천,36.85388888888889,128.5511111111111,168.979,106.47,Korea,WAMIS Open API
464,2004624,Yeongjusi(Jangsugyo),죽계천,36.85944444444445,128.6063888888889,148.77,134.48,Korea,WAMIS Open API
465,2004628,Yeongjusi(Wapyeonggyo),토일천,36.7875,128.73083333333332,162.454,107.19,Korea,WAMIS Open API
466,2004629,Yeongjusi(Seochongyo),서천,36.83027777777778,128.61388888888888,140.31,298.91,Korea,WAMIS Open API
467,2004630,Yeongjusi(YeongjuDam),내성천,36.721944444444446,128.65666666666667,0.0,,Korea,WAMIS Open API
468,2004632,Yeongjusi(Yonghyeolri),내성천,36.718333333333334,128.64527777777778,118.89,,Korea,WAMIS Open API
469,2004635,Yeongjusi(Wolhogyo),서천,36.76305555555555,128.6211111111111,116.71,347.26,Korea,WAMIS Open API
470,2004640,Yeongjusi(Seoktapgyo),내성천,36.71638888888889,128.59972222222223,100.86,914.7,Korea,WAMIS Open API
471,2004646,Yecheongun(Dokyang2gyo),옥계천,36.71888888888889,128.56305555555556,96.771,76.77,Korea,WAMIS Open API
472,2004650,Yecheongun(Mihogyo),내성천,36.669444444444444,128.51833333333335,85.71,1124.5,Korea,WAMIS Open API
473,2004660,Yecheongun(Yongsangyo),금곡천,36.678888888888885,128.4488888888889,101.149,60.21,Korea,WAMIS Open API
474,2004663,Yecheongun(Jegokgyo),한천,36.7025,128.44416666666666,107.592,103.41,Korea,WAMIS Open API
475,2004668,Yecheongun(Sinyecheongyo),한천,36.650277777777774,128.44861111111112,79.006,192.58,Korea,WAMIS Open API
476,2004680,Yecheongun(Hoeryonggyo),내성천,36.586111111111116,128.31944444444443,52.804,1514.28,Korea,WAMIS Open API
477,2004685,GYEONG CHEON DAM,,36.21,126.11999999999999,0.0,0.0,Korea,WAMIS Open API
478,2004689,Mungyeongsi(Biagyo),금천,36.66416666666667,128.26277777777779,95.639,188.15,Korea,WAMIS Open API
479,2004690,Mungyeongsi(Gyeongcheonjeosuji),금천,36.69416666666666,128.31166666666667,0.0,93.47,Korea,WAMIS Open API
480,2004695,Yecheongun(Sannyanggyo),금천,36.61138888888889,128.26083333333332,67.994,212.1,Korea,WAMIS Open API
481,2005610,Mungyeongsi(Ahogyo),,36.63472222222222,128.05472222222224,135.22,193.45,Korea,WAMIS Open API
482,2005640,Mungyeongsi(Galmagyo),,36.638888888888886,128.0863888888889,126.77,286.41,Korea,WAMIS Open API
483,2005643,Mungyeongsi(Bongdeukgyo),조령천,36.66916666666666,128.12333333333333,103.72,197.1,Korea,WAMIS Open API
484,2005650,Mungyeongsi(Buljeonggyo),,36.645833333333336,128.1486111111111,87.08,533.96,Korea,WAMIS Open API
485,2005660,Mungyeongsi(Gimyongri),,36.58916666666667,128.21666666666667,62.956,609.42,Korea,WAMIS Open API
486,2005670,Sangjusi(Sangwugyo),이안천,36.47,128.06472222222223,124.046,70.8,Korea,WAMIS Open API
487,2005675,Sangjusi(Jungso1gyo),이안천,36.5175,128.11027777777778,85.801,147.17,Korea,WAMIS Open API
488,2005680,Sangjusi(Iangyo),이안천,36.54388888888889,128.1588888888889,62.96,188.99,Korea,WAMIS Open API
489,2006603,Otae,,36.493611111111115,128.12972222222223,,150.4,Korea,WAMIS Open API
490,2006625,Sangjusi(Byeongseonggyo),병성천,36.43555555555555,128.2213888888889,39.309,416.14,Korea,WAMIS Open API
491,2006630,Sangjusi(Socheon2gyo),병성천,36.375277777777775,128.14777777777778,56.47,151.8,Korea,WAMIS Open API
492,2006650,Sangjusi(Toedonggyo),북천,36.40555555555555,128.1025,71.655,89.08,Korea,WAMIS Open API
493,2006660,Sangju ,북천,36.425,128.16111111111113,52.229,117.8,Korea,WAMIS Open API
494,2006665,Sangjusi(Hucheongyo),북천,36.42805555555555,128.15861111111113,52.328,121.93,Korea,WAMIS Open API
495,2006675,Sangjusi(Hwagyegyo),병성천,36.41861111111111,128.18305555555554,47.075,177.23,Korea,WAMIS Open API
496,2007620,Mungyeongsi(Mareungri),낙동강,36.5425,128.2613888888889,46.407,6390.8,Korea,WAMIS Open API
497,2007640,Mungyeongsi(Imokri),낙동강,36.55555555555555,128.29611111111112,46.677,6375.3,Korea,WAMIS Open API
498,2007660,Yecheongun(Sangpunggyo),낙동강,36.49861111111111,128.2686111111111,45.78,7342.22,Korea,WAMIS Open API
499,2007680,Sangjusi(SangjuboUP),낙동강,36.43194444444444,128.2513888888889,0.0,7407.0,Korea,WAMIS Open API
500,2007682,Sangjusi(SangjuboDN),낙동강,36.43472222222222,128.24249999999998,0.0,7407.0,Korea,WAMIS Open API
501,2007686,Sangjusi(Gangchanggyo),낙동강,36.40972222222222,128.24444444444444,35.05,7845.48,Korea,WAMIS Open API
502,2008603,Daegusi(Gunwidam),위천,36.120555555555555,128.79416666666665,0.0,87.5,Korea,WAMIS Open API
503,2008605,Daegusi(Dongkokgyo),위천,36.16111111111111,128.82194444444445,204.074,78.5,Korea,WAMIS Open API
504,2008610,DONG GOG GYO,위천,36.15888888888889,128.58833333333334,203.169,,Korea,WAMIS Open API
505,2008620,GO RO GYO,위천,36.12361111111111,128.75611111111112,143.142,,Korea,WAMIS Open API
506,2008621,Daegusi(Gunwidam),위천,36.126111111111115,128.75416666666666,143.14,109.0,Korea,WAMIS Open API
507,2008625,Uiseonggun(Bonghwanggyo),쌍계천,36.312777777777775,128.56222222222223,48.201,477.25,Korea,WAMIS Open API
508,2008628,Uiseonggun(Gumigyo),남대천,36.30583333333333,128.60027777777776,55.01,158.51,Korea,WAMIS Open API
509,2008629,Gaum,,36.23277777777778,128.74027777777778,,17.5,Korea,WAMIS Open API
510,2008630,Gunwigun(Miseonggyo),,36.181666666666665,128.67222222222222,102.3,62.6,Korea,WAMIS Open API
511,2008631,Uiseonggun(Deokeungyo),쌍계천,36.29,128.60888888888888,58.167,183.26,Korea,WAMIS Open API
512,2008632,Uiseonggun(Biangyo),위천,36.335,128.48833333333332,44.81,193.7,Korea,WAMIS Open API
513,2008633,Uiseonggun(Jangsonggyo),,36.32805555555556,128.52083333333334,45.252,1191.99,Korea,WAMIS Open API
514,2008635,Gunwigun(Byeongsuri),,36.176944444444445,128.58555555555557,85.03,131.6,Korea,WAMIS Open API
515,2008645,Gunwigun(Hyoryeonggyo),남천,36.155277777777776,128.58416666666668,93.49,147.72,Korea,WAMIS Open API
516,2008650,Gunwigun(Museongri),,36.193888888888885,128.56416666666667,80.256,472.69,Korea,WAMIS Open API
517,2008653,Gunwigun(Sajikri),,36.24,128.5613888888889,72.82,495.33,Korea,WAMIS Open API
518,2008659,Gunwigun(Daeranggyo),,36.27305555555555,128.47305555555556,54.91,577.18,Korea,WAMIS Open API
519,2008665,Uiseonggun(Dongbugyo),,36.323888888888895,128.50055555555556,48.29,1050.25,Korea,WAMIS Open API
520,2008688,Uiseonggun(Gosangyo),쌍계천,36.27777777777778,128.6288888888889,64.486,165.15,Korea,WAMIS Open API
521,2008690,Uiseonggun(Wijungri),,36.359722222222224,128.39694444444444,38.9,1312.19,Korea,WAMIS Open API
522,2009618,Uiseonggun(NakdanboUP),낙동강,36.35722222222223,128.31305555555556,0.0,9221.0,Korea,WAMIS Open API
523,2009620,Uiseonggun(Nakdangyo),낙동강,36.3575,128.3011111111111,27.145,9399.97,Korea,WAMIS Open API
524,2009670,Gumisi(Ilseongyo),낙동강,36.27305555555555,128.3427777777778,30.788,9510.0,Korea,WAMIS Open API
525,2009680,Gumisi(GumiboUP),낙동강,36.23833333333334,128.33972222222224,0.0,9557.0,Korea,WAMIS Open API
526,2009682,Gumisi(GumiboDN),낙동강,36.23361111111111,128.34444444444446,0.0,9557.0,Korea,WAMIS Open API
527,2010620,Gimcheonsi(Jijwari),부항천,35.981944444444444,127.96833333333333,197.2,,Korea,WAMIS Open API
528,2010623,Gimcheonsi(Dogokri),부항천,35.9775,128.01416666666665,139.04,,Korea,WAMIS Open API
529,2010625,Gimcheonsi(Gimcheonbuhangdam),부항천,35.98277777777778,128.00416666666666,162.0,,Korea,WAMIS Open API
530,2010630,Gimcheonsi(Gyori),부항천,36.01444444444444,128.03333333333333,125.14,,Korea,WAMIS Open API
531,2010635,Gimcheonsi(Jipumgyo),감천,36.02611111111111,128.03972222222222,106.54,255.44,Korea,WAMIS Open API
532,2010640,Gimcheonsi(GimcheonIC1gyo),직지사천,36.12916666666667,128.0975,61.59,108.35,Korea,WAMIS Open API
533,2010645,Gimcheonsi(Sinryonggyo),아천,36.161944444444444,128.16555555555556,54.028,91.13,Korea,WAMIS Open API
534,2010650,Gimcheonsi(Gimcheongyo),감천,36.119166666666665,128.13055555555556,58.91,456.4,Korea,WAMIS Open API
535,2010654,Gimcheonsi(Apdeulgyo),율곡천,36.12083333333334,128.17805555555555,60.189,56.49,Korea,WAMIS Open API
536,2010687,Okseong,,36.27111111111111,128.2497222222222,,11.5,Korea,WAMIS Open API
537,2011620,Gumisi(Gangbonggyo),한천,36.12555555555556,128.49249999999998,44.641,50.24,Korea,WAMIS Open API
538,2011625,Gumisi(Yangpogyo),한천,36.13611111111111,128.42888888888888,26.957,136.26,Korea,WAMIS Open API
539,2011631,Gumisi(Doryanggyo),구미천,36.13527777777778,128.33305555555555,33.494,40.46,Korea,WAMIS Open API
540,2011640,Gumisi(Gumidaegyo),낙동강,36.11083333333333,128.39666666666665,23.83,10886.1,Korea,WAMIS Open API
541,2011648,Chilgokgun(ChilgokboUP),낙동강,36.01722222222222,128.39583333333331,0.0,11040.0,Korea,WAMIS Open API
542,2011649,Chilgokgun(ChilgokboDN),낙동강,36.013888888888886,128.39499999999998,0.0,11040.0,Korea,WAMIS Open API
543,2011650,Chilgokgun(Hogukeuidari),낙동강,36.000277777777775,128.39416666666665,13.115,11103.91,Korea,WAMIS Open API
544,2011660,Seongjugun(Seongjudaegyo),낙동강,35.880833333333335,128.39027777777778,15.272,11642.8,Korea,WAMIS Open API
545,2011665,Seongjugun(Doseonggyo),백천,35.87916666666667,128.36583333333334,18.445,289.19,Korea,WAMIS Open API
546,2011670,Seongjugun(Seongsangyo),이천,35.91777777777777,128.29416666666665,28.995,116.37,Korea,WAMIS Open API
547,2011672,Seongjugun(Haksangyo),백천,35.940555555555555,128.30972222222223,28.934,103.15,Korea,WAMIS Open API
548,2011696,Daegusi(GangjungGoryeongboDN),낙동강,35.83916666666667,128.46527777777777,0.0,11667.0,Korea,WAMIS Open API
549,2011697,gangjungbo(im),낙동강,35.84055555555556,128.46194444444444,,,Korea,WAMIS Open API
550,2012602,GoHyun,고현천,36.149166666666666,128.92777777777778,234.445,14.8,Korea,WAMIS Open API
551,2012603,Pohangsi(Songnaegyo),가사천,36.16305555555555,129.10194444444443,210.314,42.79,Korea,WAMIS Open API
552,2012605,Pohangsi(Nongolgyo),낙동강,36.13361111111111,129.07999999999998,181.91,178.1,Korea,WAMIS Open API
553,2012607,Yeongcheonsi(Gumyigyo),고현천,36.149166666666666,128.92277777777778,239.663,10.35,Korea,WAMIS Open API
554,2012609,Yeongcheonsi(Hwaryonggyo),고현천,35.976111111111116,128.91166666666666,68.274,180.63,Korea,WAMIS Open API
555,2012610,Yeongcheonsi(Bohyeonsandam),고현천,36.12583333333333,128.94944444444445,0.0,33.0,Korea,WAMIS Open API
556,2012612,Yeongcheonsi(Jacheongyo),고현천,36.1075,128.9188888888889,150.45,,Korea,WAMIS Open API
557,2012615,Yeongcheonsi(Youngcheondam),자호천,36.0775,129.03416666666666,,235.0,Korea,WAMIS Open API
558,2012622,Yeongcheonsi(Godo2gyo),고촌천,35.98583333333333,129.0,82.184,92.34,Korea,WAMIS Open API
559,2012625,Yeongcheonsi(Danpogyo),자호천,35.978611111111114,128.96833333333333,77.901,326.88,Korea,WAMIS Open API
560,2012628,Yeongcheonsi(Yeongdonggyo),금호강,35.96888888888889,128.93833333333333,67.448,452.63,Korea,WAMIS Open API
561,2012632,Yeongcheonsi(Yeongyanggyo),신령천,35.961666666666666,128.9175,66.987,344.43,Korea,WAMIS Open API
562,2012634,Yeongcheonsi(Dodonggyo),북안천,35.933611111111105,128.92888888888888,59.815,93.66,Korea,WAMIS Open API
563,2012638,Gyeongsansi(Yongcheongyo),청통전,35.91777777777777,128.84194444444447,48.072,104.31,Korea,WAMIS Open API
564,2012640,Yeongcheonsi(Geumchanggyo),금호강,35.93055555555555,128.87555555555556,52.582,926.93,Korea,WAMIS Open API
565,2012643,Gyeongsansi(Hajugyo),조산천,35.913888888888884,128.82527777777779,47.39,17.21,Korea,WAMIS Open API
566,2012644,Yeongcheonsi(Daegudaegyo),대창천,35.90972222222222,128.8563888888889,48.417,62.44,Korea,WAMIS Open API
567,2012645,Bonghwagun(Punghori),낙동강,36.846111111111114,128.88888888888889,190.553,1088.69,Korea,WAMIS Open API
568,2012646,Gyeongsansi(Gyehagyo),오목천,35.802499999999995,128.80833333333334,51.399,105.42,Korea,WAMIS Open API
569,2012648,Gyeongsansi(Amnyanggyo),오목천,35.852222222222224,128.76638888888888,38.69,165.44,Korea,WAMIS Open API
570,2012650,Gyeongsansi(Hwansangri),금호강,35.878055555555555,128.77916666666667,39.209,1139.45,Korea,WAMIS Open API
571,2012652,Daegusi(Seongdonggyo),남천,35.85194444444445,128.72361111111113,35.209,93.4,Korea,WAMIS Open API
572,2012653,Daegusi(Ansimgyo),금호강,35.861666666666665,128.71444444444444,32.87,1387.42,Korea,WAMIS Open API
573,2012660,Daegusi(Sinamdong),금호강,35.891666666666666,128.63444444444443,24.935,1537.72,Korea,WAMIS Open API
574,2012661,Daegusi(Sincheongyo),신천,35.874722222222225,128.61138888888888,34.105,149.22,Korea,WAMIS Open API
575,2012662,Daegusi(Jijeogyo),방촌천,35.900555555555556,128.63166666666666,24.886,4.56,Korea,WAMIS Open API
576,2012663,Daegusi(Bullocheongyo),불로천,35.909444444444446,128.63833333333332,28.636,19.61,Korea,WAMIS Open API
577,2012664,Daegusi(Dongsingyo),신천,35.867222222222225,128.61333333333332,36.694,148.74,Korea,WAMIS Open API
578,2012665,Daegusi(Donghwagyo),동화천,35.91638888888889,128.60027777777776,23.774,93.4,Korea,WAMIS Open API
579,2012666,Daegusi(Nogockgyo),금호강,35.901944444444446,128.56472222222223,17.28,1867.52,Korea,WAMIS Open API
580,2012667,Daegusi(Suseonggyo),신천,35.85638888888889,128.60833333333332,39.921,121.0,Korea,WAMIS Open API
581,2012670,Daegusi(Sangyeokdaegyo),금호강,35.909444444444446,128.59833333333333,21.11,1694.56,Korea,WAMIS Open API
582,2012672,Daegusi(Unamgyo),팔거천,35.931666666666665,128.5538888888889,30.022,75.13,Korea,WAMIS Open API
583,2012674,Daegusi(Dalseogyo),달서천,35.88444444444444,128.5363888888889,17.957,22.07,Korea,WAMIS Open API
584,2012685,Chilgokgun(Yongsangyo),이언천,35.90333333333333,128.49638888888887,19.523,62.39,Korea,WAMIS Open API
585,2012690,Daegusi(Seongbukgyo),신천,35.893055555555556,128.59305555555557,24.728,162.72,Korea,WAMIS Open API
586,2012695,Daegusi(Gangchanggyo),금호강,35.85333333333333,128.47166666666666,12.73,2110.0,Korea,WAMIS Open API
587,2012696,Daegusi(Maegokri),낙동강,35.849444444444444,128.4463888888889,13.02,11669.0,Korea,WAMIS Open API
588,2013611,Seong Ju,,35.91138888888889,128.15083333333334,,149.6,Korea,WAMIS Open API
589,2013612,Seongjugun(Seongjujeosuji),대가천,35.908055555555556,128.14583333333331,0.0,149.71,Korea,WAMIS Open API
590,2013615,Seongjugun(Gacheongyo),대가천,35.880833333333335,128.17305555555555,112.487,172.0,Korea,WAMIS Open API
591,2013620,Seongjugun(Hwajukgyo),화죽천,35.873333333333335,128.17916666666665,108.971,42.48,Korea,WAMIS Open API
592,2013629,Seongjugun(Jackcheongyo),대가천,35.79527777777778,128.265,42.35,291.57,Korea,WAMIS Open API
593,2013630,Hapcheongun(Gujeongri),가야천,35.70722222222223,128.16972222222222,101.16,,Korea,WAMIS Open API
594,2013634,Hapcheongun(Sanjugyo),묘산천,35.67388888888889,128.17777777777778,68.667,56.28,Korea,WAMIS Open API
595,2013640,Goryeonggun(Gwiwongyo),안림천,35.67583333333333,128.23916666666665,38.793,220.32,Korea,WAMIS Open API
596,2013650,Goryeonggun(Hoecheongyo),회천,35.72916666666667,128.2777777777778,22.632,428.92,Korea,WAMIS Open API
597,2013685,Goryeonggun(Sachonri),회천,35.70055555555556,128.32194444444445,12.791,856.0,Korea,WAMIS Open API
598,2013690,Goryeonggun(Dojingyo),회천,35.678888888888885,128.33722222222224,10.72,1230.5,Korea,WAMIS Open API
599,2014617,Daegusi(Gura2gyo),진천천,35.81861111111112,128.49194444444444,11.758,58.73,Korea,WAMIS Open API
600,2014620,Daegusi(Samunjingyo),낙동강,35.81222222222222,128.47416666666666,10.63,13730.7,Korea,WAMIS Open API
601,2014625,OK YEON,,,,0.0,0.0,Korea,WAMIS Open API
602,2014640,Goryeonggun(Goryeonggyo),낙동강,35.75277777777778,128.38694444444442,10.6,14034.0,Korea,WAMIS Open API
603,2014650,Daegusi(DalsungboUP),낙동강,35.736111111111114,128.42222222222222,0.0,14248.0,Korea,WAMIS Open API
604,2014651,Goryeonggun(DalsungboDN),낙동강,35.731944444444444,128.4163888888889,0.0,14248.0,Korea,WAMIS Open API
605,2014660,Daegusi(Seonghari),낙동강,35.70277777777778,128.43416666666667,8.3,14041.34,Korea,WAMIS Open API
606,2014665,Dalchang,,35.63638888888889,128.4738888888889,,56.3,Korea,WAMIS Open API
607,2014669,Daegusi(Chacheon2gyo),차천,35.67111111111111,128.44472222222223,14.131,73.15,Korea,WAMIS Open API
608,2014680,Daegusi(Naeri),낙동강,35.63361111111111,128.40305555555557,4.583,14980.7,Korea,WAMIS Open API
609,2014690,Hapcheongun(Yuljigyo),낙동강,35.61222222222222,128.35833333333332,4.153,15053.0,Korea,WAMIS Open API
610,2014697,Hapcheongun(HapcheonchangnyeongboUP),낙동강,35.58888888888889,128.35611111111112,0.0,15074.0,Korea,WAMIS Open API
611,2014699,Hapcheongun(HapcheonchangnyeongboDN),낙동강,35.58694444444445,128.3552777777778,0.0,15074.0,Korea,WAMIS Open API
612,2015620,Geochanggun(Uidonggyo),황강,35.715,127.92527777777778,195.315,180.7,Korea,WAMIS Open API
613,2015623,Geochanggun(Nongsangyo),거창위천,35.76888888888889,127.82111111111111,298.92,122.16,Korea,WAMIS Open API
614,2015630,Geochanggun(Namhagyo),황강,35.67166666666667,127.94027777777778,177.373,459.6,Korea,WAMIS Open API
615,2015635,Geochanggun(Geoyeolgyo),위천,35.683055555555555,127.89777777777779,193.156,227.0,Korea,WAMIS Open API
616,2015637,Hapcheongun(Sulgokgyo),,35.58083333333334,127.98916666666666,163.254,,Korea,WAMIS Open API
617,2015650,Gabuk,,35.79388888888889,128.0013888888889,,34.5,Korea,WAMIS Open API
618,2015655,Geochanggun(Jisangyo),가천천,35.66611111111111,128.01444444444445,226.43,159.9,Korea,WAMIS Open API
619,2015680,Hapcheongun(Hapcheondam),황강,35.53388888888889,128.0313888888889,,925.0,Korea,WAMIS Open API
620,2016630,Hapcheongun(Hapcheondambangsuro),황강,35.53333333333333,128.03333333333333,,925.0,Korea,WAMIS Open API
621,2016635,Hapcheongun(Hapcheonjojeongjidam),황강,35.540277777777774,128.08416666666668,,950.0,Korea,WAMIS Open API
622,2016640,Hapcheongun(Hapcheonjojeongjibangsuro),황강,35.53972222222222,128.08472222222224,,950.0,Korea,WAMIS Open API
623,2016650,Hapcheongun(Namjeonggyo),황강,35.5575,128.16111111111113,29.75,946.2,Korea,WAMIS Open API
624,2016660,Hapcheongun(Girigyo),황강,35.61361111111111,128.21944444444443,15.6,1201.08,Korea,WAMIS Open API
625,2016680,Hapcheongun(Hwangganggyo),황강,35.57194444444445,128.2927777777778,8.291,1240.66,Korea,WAMIS Open API
626,2017620,Hapcheongun(Jeokpogyo),낙동강,35.527499999999996,128.35916666666665,0.574,16433.12,Korea,WAMIS Open API
627,2017630,Uiryeonggun(Daegokgyo),신반천,35.48527777777778,128.34833333333333,6.757,165.13,Korea,WAMIS Open API
628,2017640,Changnyeonggun(Yueogyo),토평천,35.51972222222222,128.37666666666667,3.565,120.85,Korea,WAMIS Open API
629,2017670,Uiryeonggun(Bakjingyo),낙동강,35.44,128.37583333333333,-5.18,16845.28,Korea,WAMIS Open API
630,2017685,Uiryeonggun(Segangyo),유곡천,35.44333333333333,128.35,20.89,91.8,Korea,WAMIS Open API
631,2018606,Hamyanggun(Dagokgyo),남강,35.621944444444445,127.74277777777777,277.319,144.8,Korea,WAMIS Open API
632,2018608,Hamyanggun(Gumchunri),남강,35.6275,127.81527777777778,186.173,161.8,Korea,WAMIS Open API
633,2018609,Hamyanggun(Anuigyo),남강,35.62916666666667,127.81333333333333,189.356,218.0,Korea,WAMIS Open API
634,2018620,Hamyanggun(Yongpyungri),함양위천,35.51361111111111,127.73166666666667,153.36,122.0,Korea,WAMIS Open API
635,2018623,Ham yang gun(Dae ung gyo),,35.515,127.78166666666667,128.13,,Korea,WAMIS Open API
636,2018626,Namwonsi(Ramcheongyo),람천,35.41777777777777,127.62722222222222,312.92,249.08,Korea,WAMIS Open API
637,2018630,Hamyanggun(Eutanri),임천,35.401666666666664,127.68277777777779,244.0,218.2,Korea,WAMIS Open API
638,2018635,Hamyanggun(Hwachonri),임천,35.46472222222223,127.7911111111111,122.73,464.38,Korea,WAMIS Open API
639,2018640,Sancheonggun(Goeupgyo),남강,35.48916666666667,127.83055555555555,106.687,1023.29,Korea,WAMIS Open API
640,2018645,Sancheonggun(Gyunghogyo),남강,35.418055555555554,127.87444444444444,86.152,1134.1,Korea,WAMIS Open API
641,2018650,Sancheonggun(Susangyo),남강,35.337500000000006,127.94,49.3,1233.0,Korea,WAMIS Open API
642,2018653,Samga,,35.385,128.17138888888888,,7.46,Korea,WAMIS Open API
643,2018655,Hapchungun(Sohori),양천,35.41361111111111,128.1175,81.036,103.6,Korea,WAMIS Open API
644,2018658,Sonhang,,35.43805555555555,127.97527777777778,,14.94,Korea,WAMIS Open API
645,2018662,Sancheong-gun(Soigyo),신등천,35.36,128.0075,56.513,163.39,Korea,WAMIS Open API
646,2018665,Sancheonggun(Hajungri),양천,35.32,127.99583333333334,46.574,412.8,Korea,WAMIS Open API
647,2018671,Sancheonggun(Samseonggyo),시천천,35.242222222222225,127.81722222222221,133.563,89.17,Korea,WAMIS Open API
648,2018673,San cheong gun(Won ri gyo),,35.276666666666664,127.83611111111111,100.05,,Korea,WAMIS Open API
649,2018674,Sancheong-gun(Mukgokgyo),남강,35.28194444444444,127.96416666666667,37.8,1709.2,Korea,WAMIS Open API
650,2018680,Sancheonggun(Changchonri),덕천강,35.269999999999996,127.89250000000001,81.0,143.0,Korea,WAMIS Open API
651,2018685,Hadonggun(Daegokri),덕천강,35.17861111111111,127.92027777777778,51.862,335.5,Korea,WAMIS Open API
652,2018688,Jinjusi(Deokcheongyo),덕천강,35.157777777777774,127.95777777777778,41.124,,Korea,WAMIS Open API
653,2018690,Jinjusi(Naepyungri),덕천강,35.151111111111106,128.0211111111111,28.5,2293.4,Korea,WAMIS Open API
654,2018692,Sachunsi(Gumjungri),가화천,35.080555555555556,128.0327777777778,-1.4,115.6,Korea,WAMIS Open API
655,2018695,Jinjusi(Panmundong),남강,35.17638888888889,128.02972222222223,26.5,2293.4,Korea,WAMIS Open API
656,2018698,Jinjusi(Namgangdambangsuro),남강,35.16111111111111,128.03527777777776,,2293.4,Korea,WAMIS Open API
657,2019610,Goseonggun(Dumungyo),영천강,35.09861111111111,128.19083333333333,33.21,133.73,Korea,WAMIS Open API
658,2019615,Jinjusi(Jangdaedong),남강,35.19027777777777,128.08666666666667,18.3,237.0,Korea,WAMIS Open API
659,2019620,Hamangun(Songdogyo),남강,35.36055555555556,128.41583333333335,-0.1,3416.56,Korea,WAMIS Open API
660,2019625,Jinjusi(Oksangyo),영천강,35.163333333333334,128.1563888888889,16.433,178.52,Korea,WAMIS Open API
661,2019630,Uiryeonggun(Baekgokgyo),남강,35.33916666666667,128.3661111111111,1.934,3165.63,Korea,WAMIS Open API
662,2019635,Jinjusi(Deogori),남강,35.237500000000004,128.13694444444442,12.11,2658.61,Korea,WAMIS Open API
663,2019640,Jinjusi(Wolganggyo),남강,35.222500000000004,128.1988888888889,10.727,2756.47,Korea,WAMIS Open API
664,2019647,Jinjusi(Jangbakgyo),남강,35.256388888888885,128.27222222222224,4.711,,Korea,WAMIS Open API
665,2019650,Uiryeonggun(Eoeundonggyo),의령천,35.324444444444445,128.22916666666666,30.894,34.02,Korea,WAMIS Open API
666,2019651,Seoam,,35.363055555555555,128.24305555555554,,13.8,Korea,WAMIS Open API
667,2019652,Jinjusi(Bangchon2gyo),반성천,35.19555555555555,128.2513888888889,10.469,97.41,Korea,WAMIS Open API
668,2019653,Uiryeonggun(Gongdangyo),의령천,35.31722222222223,128.2686111111111,8.792,77.91,Korea,WAMIS Open API
669,2019655,Uiryeonggun(Jeongamgyo),남강,35.31333333333333,128.29527777777778,6.04,2990.66,Korea,WAMIS Open API
670,2019665,Hamangun(Yongamgyo),석교천,35.30888888888889,128.31833333333333,5.362,60.96,Korea,WAMIS Open API
671,2019680,Hamangun(Seochonri),함안천,35.33166666666667,128.40055555555557,3.041,155.11,Korea,WAMIS Open API
672,2019685,Hamangun(Daesagyo),함안천,35.255,128.42555555555555,20.46,48.38,Korea,WAMIS Open API
673,2019695,Uiryeonggun(Seongsanri),남강,35.39083333333333,128.42916666666665,3.09,3446.3,Korea,WAMIS Open API
674,2020603,Miryangsi(Pangokgyo),청도천,35.504444444444445,128.6536111111111,19.757,74.03,Korea,WAMIS Open API
675,2020605,Changnyeonggun(Gangri),계성천,35.4575,128.46249999999998,8.789,54.57,Korea,WAMIS Open API
676,2020615,Hamangun(Gyenaeri),낙동강,35.38333333333333,128.4836111111111,1.895,20354.77,Korea,WAMIS Open API
677,2020640,Hamangun(Soranggyo),광려천,35.38138888888889,128.5225,-0.168,154.35,Korea,WAMIS Open API
678,2020646,Hamangun(Changnyeong·HamanboDN),낙동강,35.37722222222222,128.5525,0.0,20697.0,Korea,WAMIS Open API
679,2020647,Changnyeonggun(Changnyeong·HamanboUP),낙동강,35.38305555555556,128.55027777777778,0.0,20697.0,Korea,WAMIS Open API
680,2020650,Changnyeonggun(Cheongamri),낙동강,35.39555555555555,128.60083333333333,-4.01,20685.3,Korea,WAMIS Open API
681,2020651,Miryangsi(Ingyo),청도천,35.42527777777777,128.6511111111111,1.766,159.17,Korea,WAMIS Open API
682,2020660,Changwonsi(Masangyo),신천,35.345,128.61722222222224,3.77,50.19,Korea,WAMIS Open API
683,2020671,Gimhaesi(Jucheongyo),주천강,35.31361111111111,128.72833333333332,-0.317,70.13,Korea,WAMIS Open API
684,2020675,Changwonsi(Susandaegyo),낙동강,35.36527777777778,128.71416666666664,-0.518,20996.7,Korea,WAMIS Open API
685,2020680,Gimhaesi(Oseogyo),화포천,35.336111111111116,128.815,-0.608,132.88,Korea,WAMIS Open API
686,2021610,Gyeongjusi(Uigokgyo),동창천,35.75833333333333,129.04749999999999,191.412,62.32,Korea,WAMIS Open API
687,2021612,Cheongdogun(Sinwon1gyo),,35.687777777777775,128.96138888888888,169.29,,Korea,WAMIS Open API
688,2021620,Cheongdogun(Unmundam),동창천,35.723055555555554,128.91555555555556,,301.3,Korea,WAMIS Open API
689,2021625,Cheongdogun(Imdanggyo),낙동강,35.70611111111111,128.91666666666666,101.34,,Korea,WAMIS Open API
690,2021630,Cheongdogun(Majumgyo),,35.67361111111111,128.86694444444444,74.475,330.1,Korea,WAMIS Open API
691,2021635,Gyeongjusi(Magokgyo),,35.67527777777777,128.79749999999999,,,Korea,WAMIS Open API
692,2021640,Cheongdogun(Wonri),청도천,35.61972222222222,128.76277777777779,53.273,298.32,Korea,WAMIS Open API
693,2021643,Cheongdogun(Soragyo),청도천,35.65972222222222,128.72972222222222,61.615,233.29,Korea,WAMIS Open API
694,2021650,Yangsansi(Daeri),단장천,35.47916666666667,128.98055555555555,222.21,59.4,Korea,WAMIS Open API
695,2021653,Milyangsi(Sogogyo),동천,35.57611111111112,128.87083333333334,91.743,85.43,Korea,WAMIS Open API
696,2021660,Miryangsi(Miryangdam),단장천,35.481388888888894,128.93472222222223,160.0,95.4,Korea,WAMIS Open API
697,2021664,Cheongdogun(Yucheongyo),청도천,35.56916666666667,128.7727777777778,28.101,337.14,Korea,WAMIS Open API
698,2021665,Miryangsi(Sangdonggyo),밀양강,35.56472222222222,128.765,25.747,889.57,Korea,WAMIS Open API
699,2021670,Miryangsi(Geumgokri),,35.50888888888889,128.83916666666667,31.494,332.19,Korea,WAMIS Open API
700,2021675,Miryangsi(Yongpyeongdong),밀양강,35.494166666666665,128.77916666666667,11.154,1288.56,Korea,WAMIS Open API
701,2021677,Miryangsi(Namcheongyo),밀양강,35.48916666666667,128.7472222222222,5.37,1295.49,Korea,WAMIS Open API
702,2021685,Miryangsi(Nampodong),밀양강,35.461111111111116,128.78527777777776,0.05,1330.6,Korea,WAMIS Open API
703,2021690,Miryangsi(Samsanggyo),밀양강,35.41083333333333,128.79666666666665,-0.88,979.4,Korea,WAMIS Open API
704,2022610,Miryangsi(Samnangjin),낙동강,35.382777777777775,128.82166666666666,-0.828,22775.43,Korea,WAMIS Open API
705,2022640,Gimhaesi(Wolchonri),낙동강,35.28944444444444,128.99416666666664,-0.81,23149.9,Korea,WAMIS Open API
706,2022651,Yangsansi(Samgyegyo),양산천,35.42194444444444,129.06333333333333,30.719,106.5,Korea,WAMIS Open API
707,2022655,Yangsansi(Hyochunggyo),양산천,35.38055555555555,129.04694444444445,7.25,136.3,Korea,WAMIS Open API
708,2022660,Yangsansi(Yangsangyo),양산천,35.3575,129.0361111111111,4.258,176.91,Korea,WAMIS Open API
709,2022662,Yangsansi(Eogok1gyo),유산천,35.37388888888889,129.02805555555557,20.661,20.77,Korea,WAMIS Open API
710,2022670,Yangsansi(Hopodaegyo),양산천,35.28944444444444,129.0113888888889,-0.98,242.9,Korea,WAMIS Open API
711,2022678,Busansi(Daedongnakdonggyo),서낙동강,35.225,128.97611111111112,-3.84,14.08,Korea,WAMIS Open API
712,2022680,Busansi(Gupodaegyo),낙동강,35.203611111111115,128.9933333333333,-1.592,23346.91,Korea,WAMIS Open API
713,2022681,Ginhaesi(Yeonjigyo),해반천,35.24472222222222,128.8713888888889,5.688,12.79,Korea,WAMIS Open API
714,2022682,Busansi(Samdeokgyo),삼락천,35.18194444444444,128.9813888888889,-2.999,8.31,Korea,WAMIS Open API
715,2022684,Gimhaesi(Daecheongcheongyo),대청천,35.198055555555555,128.81805555555556,1.773,19.98,Korea,WAMIS Open API
716,2022685,Gimhaesi(Jeongcheongyo),조만강,35.205555555555556,128.8336111111111,-2.077,39.6,Korea,WAMIS Open API
717,2022688,Busansi(Dongseogyo),평강천,35.1975,128.9311111111111,-2.91,6.68,Korea,WAMIS Open API
718,2022690,Busansi(Gangdonggyo),서낙동강,35.19194444444444,128.90555555555557,-6.46,76.58,Korea,WAMIS Open API
719,2022692,Busansi(Hakjang3hogyo),학장천,35.14277777777778,128.98555555555555,3.459,5.91,Korea,WAMIS Open API
720,2022693,Busansi(Jisacheon1gyo),지사천,35.13916666666667,128.85805555555555,-2.134,13.73,Korea,WAMIS Open API
721,2022696,Busansi(Nakdongganghagueon(in)),낙동강,35.10805555555556,128.95055555555555,0.0,23384.21,Korea,WAMIS Open API
722,2022697,Busansi(Nakdongganghagueon(out)),낙동강,35.10666666666667,128.95055555555555,0.0,23384.21,Korea,WAMIS Open API
723,2101601,Ulsansi(Bokangyo),복안천,35.70305555555556,129.17999999999998,90.639,22.81,Korea,WAMIS Open API
724,2101603,Gyeongjusi(Wolsangyo),형산강,35.73555555555556,129.2025,57.957,78.96,Korea,WAMIS Open API
725,2101610,Gyeongjusi(Mangseonggyo),형산강,35.78805555555555,129.20055555555555,39.53,261.63,Korea,WAMIS Open API
726,2101620,Gyeongjusi(Hyohyeongyo),대천,35.815,129.17888888888888,33.94,239.08,Korea,WAMIS Open API
727,2101624,Gyeongjusi(Gyochongyo),남천,35.82888888888889,129.2147222222222,31.058,83.32,Korea,WAMIS Open API
728,2101625,Gyeongjusi(Seocheongyo),형산강,35.838055555555556,129.20138888888889,26.585,443.31,Korea,WAMIS Open API
729,2101630,Gyeongjusi(Guhwanggyo),북천,35.843333333333334,129.23722222222221,49.421,78.14,Korea,WAMIS Open API
730,2101632,Bomun,,35.84777777777778,129.26722222222224,,33.88,Korea,WAMIS Open API
731,2101640,Gyeongjusi(Jiilgyo),소현천,35.88527777777778,129.18805555555556,31.387,36.73,Korea,WAMIS Open API
732,2101650,Gyeongjusi(Moari),형산강,35.92111111111111,129.24027777777778,9.057,646.28,Korea,WAMIS Open API
733,2101660,Pohangsi(Inbigyo),기계천,36.08972222222222,129.15611111111113,68.944,76.38,Korea,WAMIS Open API
734,2101663,Gyeongjusi(Bugokgyo),칠평천,35.99,129.21027777777778,11.821,77.9,Korea,WAMIS Open API
735,2101668,Gyeongjusi(Dalseonggyo),기계천,36.051944444444445,129.23833333333332,19.313,156.45,Korea,WAMIS Open API
736,2101675,Gyeongjusi(Gangdongdaegyo),형산강,35.98111111111111,129.26361111111112,0.639,1000.09,Korea,WAMIS Open API
737,2101680,Gyeongjusi(Gukdangri),형산강,35.99388888888889,129.29611111111112,-6.96,971.21,Korea,WAMIS Open API
738,2101687,Pohangsi(Namcheongyo),칠성천,35.988055555555555,129.35805555555555,-0.123,25.37,Korea,WAMIS Open API
739,2101690,Pohangsi(Hyeongsangyo),형산강,36.01166666666666,129.37194444444447,-1.094,1136.31,Korea,WAMIS Open API
740,2201607,Ulsansi(Jiheongyo),태화강,35.57694444444445,129.0991666666667,96.719,54.87,Korea,WAMIS Open API
741,2201608,Ulsansi(Gakseok1gyo),구량천,35.619166666666665,129.16166666666666,78.493,12.3,Korea,WAMIS Open API
742,2201611,Ulsansi(Gusugyo),태화강,35.54805555555556,129.15083333333334,43.02,122.2,Korea,WAMIS Open API
743,2201613,Ulsansi(Daeamgyo),태화강,35.54944444444444,129.18333333333334,,127.43,Korea,WAMIS Open API
744,2201614,Ulsansi(Wangbanggyo),,35.514722222222225,129.15583333333333,54.08,,Korea,WAMIS Open API
745,2201615,Ulsansi(Daeamdam),둔기천,35.54361111111111,129.18138888888888,,77.0,Korea,WAMIS Open API
746,2201617,Ulsansi(Bangugyo),,35.60888888888889,129.17055555555555,57.44,,Korea,WAMIS Open API
747,2201625,Ulsansi(Sayeondam),대곡천,35.57972222222222,129.19472222222223,,67.0,Korea,WAMIS Open API
748,2201630,Ulsansi(Sayeongyo),태화강,35.572500000000005,129.20444444444442,15.319,208.47,Korea,WAMIS Open API
749,2201640,Ulsansi(Seonbawigyo),태화강,35.57805555555556,129.23527777777775,3.54,357.11,Korea,WAMIS Open API
750,2201650,,동천,35.56666666666667,129.25,1.592,,Korea,WAMIS Open API
751,2201653,Ulsansi(Guyeonggyo),태화강,35.561388888888885,129.2486111111111,0.936,369.1,Korea,WAMIS Open API
752,2201660,Ulsansi(Samhogyo),태화강,35.553888888888885,129.2752777777778,-0.22,421.4,Korea,WAMIS Open API
753,2201670,Ulsansi(Taehwagyo),태화강,35.552499999999995,129.30916666666667,-1.076,436.59,Korea,WAMIS Open API
754,2201677,Gyeongjusi(Wubakdaegyo),동천,35.67833333333333,129.32055555555556,39.327,70.58,Korea,WAMIS Open API
755,2201685,Ulsansi(Sindapgyo),동천,35.62972222222222,129.34666666666666,16.63,106.71,Korea,WAMIS Open API
756,2201690,Ulsansi(Byeongyeonggyo),동천,35.57666666666667,129.35194444444443,2.437,162.5,Korea,WAMIS Open API
757,2301625,Ulsansi(Ungchongyo),곡천천,35.4575,129.20555555555555,49.419,19.38,Korea,WAMIS Open API
758,2301630,Ulsansi(Tongcheongyo),회야강,35.47,129.23916666666665,33.72,112.8,Korea,WAMIS Open API
759,2301645,Ulsansi(Cheongbaekgyo),청량천,35.47972222222222,129.3088888888889,-1.03,35.67,Korea,WAMIS Open API
760,2301650,Ulsansi(Dongcheonri),,35.46333333333334,129.28472222222223,5.522,129.81,Korea,WAMIS Open API
761,2301670,Ulsansi(Deoksingyo),,35.43416666666666,129.30416666666667,-1.46,137.18,Korea,WAMIS Open API
762,2301680,Ulsansi(Namchang3gyo),남창천,35.415,129.28416666666666,1.044,40.64,Korea,WAMIS Open API
763,2302635,Busansi(Hoedongjeosuji),,35.236111111111114,129.11805555555557,0.0,99.54,Korea,WAMIS Open API
764,2302640,Busansi(Dongcheongyo),수영강,35.2175,129.11833333333334,-1.4,104.17,Korea,WAMIS Open API
765,2302650,Busansi(Wondonggyo),,35.193888888888885,129.11416666666665,-2.406,133.38,Korea,WAMIS Open API
766,2302651,Busansi(Daleumgyo),좌광천,35.31944444444445,129.1975,35.701,22.46,Korea,WAMIS Open API
767,2302655,Busansi(Sebyeonggyo),,35.196666666666665,129.08277777777778,-1.34,39.53,Korea,WAMIS Open API
768,2302661,Busansi(jwarsuyounggyo),,35.17472222222222,129.12083333333334,-3.415,190.48,Korea,WAMIS Open API
769,2302670,Busansi(Beomcheondong),동천,35.15,129.0613888888889,-1.782,26.38,Korea,WAMIS Open API
770,2302690,Busansi(Dadaepo),낙동강,35.06166666666666,128.95555555555555,-1.43,,Korea,WAMIS Open API
771,2302695,Busansi(Sinpyeongdong),,35.09111111111111,128.95388888888888,-0.345,102.7,Korea,WAMIS Open API
772,2401613,Uljingun(Olmigolgyo),남대천,37.030833333333334,129.32527777777779,49.84,104.17,Korea,WAMIS Open API
773,2401616,Uljingun(Wolbyeongyo),남대천,36.98888888888889,129.4013888888889,2.392,107.84,Korea,WAMIS Open API
774,2401620,Uljingun(Gusanri),왕피천,36.95166666666667,129.37305555555557,7.96,513.2,Korea,WAMIS Open API
775,2401633,Yeongyanggun(Suha3gyo),장수포천,36.830000000000005,129.2688888888889,291.597,123.55,Korea,WAMIS Open API
776,2401640,Uljingun(Cheonjeongyo),광천,36.973055555555554,129.3686111111111,6.418,174.15,Korea,WAMIS Open API
777,2401641,Uljingun(Giseonggyo),척산천,36.79138888888889,129.44916666666668,1.769,60.33,Korea,WAMIS Open API
778,2401650,Uljingun(Susangyo),왕피천,36.965833333333336,129.39805555555554,-1.975,509.83,Korea,WAMIS Open API
779,2401660,Uljingun(Gwangpumgyo),남대천,36.72166666666667,129.40805555555556,19.551,122.03,Korea,WAMIS Open API
780,2401690,Yeongdeokgun(Illyanggyo),송천,36.54888888888889,129.37722222222223,6.44,237.1,Korea,WAMIS Open API
781,2401691,Myo Gok,,36.52638888888889,129.35472222222222,,35.3,Korea,WAMIS Open API
782,2402609,Yeongdeokgun(Mansegyo),영덕오십천,36.43805555555555,129.2913888888889,50.145,90.39,Korea,WAMIS Open API
783,2402610,Yong Yeon,,36.11888888888889,129.30083333333334,,68.92,Korea,WAMIS Open API
784,2402620,Yeongdeokgun(Daejiri),대서천,36.393055555555556,129.3075,55.84,102.7,Korea,WAMIS Open API
785,2402630,Yeongdeokgun(Yeongdeokdaegyo),영덕오십천,36.402499999999996,129.37333333333333,3.66,341.12,Korea,WAMIS Open API
786,2402680,Pohangsi(Gokkanggyo),곡강천,36.121944444444445,129.34611111111113,9.466,96.17,Korea,WAMIS Open API
787,2403617,Pohangsi(Munchunggyo),냉천,35.92861111111111,129.40027777777777,51.474,23.3,Korea,WAMIS Open API
788,2403618,Pohangsi(Mundeok2gyo),신광천,35.941111111111105,129.39277777777778,47.341,28.61,Korea,WAMIS Open API
789,2403620,Pohangsi(Mundeok3gyo),냉천,35.95166666666667,129.4063888888889,26.894,60.1,Korea,WAMIS Open API
790,2403625,Gyeongjusi(Gugilgyo),대종천,35.750277777777775,129.46555555555554,4.74,110.32,Korea,WAMIS Open API
791,2403660,Ulsansi(Sinmyeonggyo),신명천,35.63972222222222,129.43972222222223,-0.239,18.83,Korea,WAMIS Open API
792,2501620,NAM GANG DAM,,35.17722222222222,128.0302777777778,26.5,2285.0,Korea,WAMIS Open API
793,2501630,Sacheonsi(Sotgolgyo),곤양천,35.061388888888885,127.96388888888889,3.386,53.81,Korea,WAMIS Open API
794,2501640,Sacheon,가화천,35.08027777777778,128.0327777777778,,785.56,Korea,WAMIS Open API
795,2502610,Namhaegun(Geumseogyo),서상천,34.81027777777778,127.8436111111111,1.646,15.98,Korea,WAMIS Open API
796,2502630,Namhaegun(Bongcheongyo),봉천,34.831388888888895,127.89722222222223,8.631,3.19,Korea,WAMIS Open API
797,2502660,Namhaegun(Bonghwagyo),화천,34.80611111111111,128.03305555555556,10.408,22.54,Korea,WAMIS Open API
798,2503620,Geojesi(Yeonchodam),연초천,34.936388888888885,128.6688888888889,,11.7,Korea,WAMIS Open API
799,2503623,Geojesi(Deokpo2gyo),덕포천,34.90972222222222,128.70444444444442,4.96,3.06,Korea,WAMIS Open API
800,2503625,Geojesi(Jukjeongyo),둔덕천,34.843333333333334,128.51472222222222,,17.7,Korea,WAMIS Open API
801,2503635,Geojesi(Dokbonggyo),고현천,34.87722222222222,128.63333333333333,8.301,10.81,Korea,WAMIS Open API
802,2503640,Geojesi(GuCheonDam),구천천,34.822500000000005,128.63583333333332,0.0,,Korea,WAMIS Open API
803,2503650,Geojesi(Gugheongyo),구천천,34.815,128.6361111111111,,12.7,Korea,WAMIS Open API
804,2504655,Changwonsi(Jinbuk2gyo),진동천,35.13777777777778,128.4836111111111,18.532,17.89,Korea,WAMIS Open API
805,2504660,Changwoncheonje1hogyo),,35.24611111111111,128.66472222222222,4.448,12.0,Korea,WAMIS Open API
806,2504662,Changwonsi(Seokjeon3gyo),삼호천,35.231388888888894,128.56916666666666,20.249,10.16,Korea,WAMIS Open API
807,3001603,Daegok,,35.70055555555556,127.625,,13.17,Korea,WAMIS Open API
808,3001604,CheonCheon,,35.70888888888889,127.50361111111111,,13.5,Korea,WAMIS Open API
809,3001605,Jangsu-gun(Ungokgyo),금강,35.72138888888889,127.53083333333333,342.567,102.2,Korea,WAMIS Open API
810,3001610,Jangsu-gun(Janggyesijanggyo),장계천,35.73027777777778,127.58305555555555,345.488,48.8,Korea,WAMIS Open API
811,3001615,ChunChun,,35.78583333333333,127.53,273.5,,Korea,WAMIS Open API
812,3001616,Jangsu-gun(Obong1gyo),계북천,35.78527777777778,127.56055555555555,310.606,34.88,Korea,WAMIS Open API
813,3001620,Jangsugun(Yeonhwagyo),금강,35.78861111111111,127.52722222222222,273.5,290.9,Korea,WAMIS Open API
814,3001630,Jinangun(Songdaegyo),진안천,35.80472222222222,127.45277777777778,265.46,,Korea,WAMIS Open API
815,3001633,Jinan-gun(Neunggilgyo),구량천,35.86027777777778,127.59388888888888,334.916,90.5,Korea,WAMIS Open API
816,3001640,Jinangun(Seongsanri),구량천,35.83305555555556,127.54472222222222,291.5,164.4,Korea,WAMIS Open API
817,3001654,Jinan-gun(Daegokgyo),정자천,35.83722222222222,127.39111111111112,297.49,47.65,Korea,WAMIS Open API
818,3001660,Jinangun(Seokjeonggyo),정자천,35.85444444444445,127.44,266.481,,Korea,WAMIS Open API
819,3001675,Jinan-gun(Jungri1gyo),주자천,35.97166666666667,127.36694444444444,370.251,23.65,Korea,WAMIS Open API
820,3001680,JuCheon,주자천,35.9675,127.43277777777779,270.861,,Korea,WAMIS Open API
821,3001690,Jinangun(Yongdamdam),금강,35.94333333333333,127.52777777777777,222.0,930.2,Korea,WAMIS Open API
822,3001695,Jinangun(Yongdamdambangsuro),금강,35.94555555555555,127.52583333333334,204.3,930.2,Korea,WAMIS Open API
823,3002630,Jinangun(Sinyongdamdamgyo),,35.95166666666667,127.52527777777777,0.0,930.2,Korea,WAMIS Open API
824,3002650,Jinan-gun(Gamdonggyo),금강,35.97083333333334,127.53472222222221,197.476,947.7,Korea,WAMIS Open API
825,3002655,Muju-gun(Daetigyo),금강,35.99388888888889,127.5775,183.952,994.9,Korea,WAMIS Open API
826,3003617,Muju-gun(Hadugyo),원당천,35.99027777777778,127.7925,304.861,114.72,Korea,WAMIS Open API
827,3003620,Muju-gun(Sinchonnong2gyo),무주남대천,36.00555555555555,127.79527777777777,289.594,79.4,Korea,WAMIS Open API
828,3003660,Muju-gun(Yeouigyo),무주남대천,36.03583333333333,127.71166666666667,205.966,307.1,Korea,WAMIS Open API
829,3003675,Muju-gun(Sanseonggyo),상곡천,35.98722222222222,127.69583333333334,213.794,47.46,Korea,WAMIS Open API
830,3003680,Muju-gun(Chwisujang),무주남대천,36.00888888888889,127.6738888888889,185.652,385.51,Korea,WAMIS Open API
831,3003692,Muju-gun(Mumyeonggyo),적상천,35.98583333333333,127.63916666666667,186.79,58.38,Korea,WAMIS Open API
832,3003694,Muju-gun (Seomyeongyo),무주남대천,36.003055555555555,127.62444444444444,170.284,464.22,Korea,WAMIS Open API
833,3004610,SU TONG,,36.04666666666667,127.59777777777778,147.23,1539.0,Korea,WAMIS Open API
834,3004620,Geumsangun(Jeokbyeokgyo),금강,36.04888888888889,127.5936111111111,146.13,1539.0,Korea,WAMIS Open API
835,3004637,Geumsan-gun(Hwangpunggyo),봉황천,36.08166666666667,127.5075,142.746,122.5,Korea,WAMIS Open API
836,3004640,Geumsan-gun(Jewondaegyo),금강,36.111111111111114,127.56722222222221,126.08,1611.43,Korea,WAMIS Open API
837,3004645,Geumsan-gun(eumdaegyo),봉황천,36.03,127.50222222222222,167.275,65.5,Korea,WAMIS Open API
838,3004650,Yeongdonggun(Hotanri),금강,36.13194444444444,127.65,113.96,1909.0,Korea,WAMIS Open API
839,3004670,Yeongdong-gun(Michongyo),시항천,36.12166666666667,127.71138888888889,127.504,23.98,Korea,WAMIS Open API
840,3004680,Yeongdong-gun(Yeongsangyo),영동천,36.178888888888885,127.7725,118.682,105.6,Korea,WAMIS Open API
841,3004685,Yeongdong-gun(choganggyo),영동천,36.211111111111116,127.71583333333334,97.36,141.86,Korea,WAMIS Open API
842,3004690,Yeongdong-gun(Yangganggyo),금강,36.21194444444445,127.70777777777778,97.008,2080.63,Korea,WAMIS Open API
843,3005670,Yeongdong-gun(Guemsanggyo),초강,36.22527777777778,127.91027777777778,155.003,237.8,Korea,WAMIS Open API
844,3005675,Yeongdong-gun(Baekhwagyo),석천,36.25972222222222,127.89666666666668,171.937,215.8,Korea,WAMIS Open API
845,3005680,Yeongdonggun(Yulri),초강,36.22972222222222,127.80499999999999,120.8,619.0,Korea,WAMIS Open API
846,3005690,Yeongdong-gun(Simcheongyo),초강,36.230555555555554,127.72166666666666,96.19,664.3,Korea,WAMIS Open API
847,3006640,Okcheongun(Gugeumgang4gyo),금강,36.27861111111111,127.6763888888889,75.95,3204.0,Korea,WAMIS Open API
848,3006650,I WEON,,36.237500000000004,127.6713888888889,88.274,2963.14,Korea,WAMIS Open API
849,3006680,Okcheongun(Iwondaegyo),금강,36.239444444444445,127.66777777777779,88.09,2957.0,Korea,WAMIS Open API
850,3006690,Okcheon-gun((gu)Geumgang2gyo),금강,36.28944444444444,127.64527777777778,79.506,2998.16,Korea,WAMIS Open API
851,3007606,DuPyoung,,36.53805555555555,127.69416666666667,197.2,3.4,Korea,WAMIS Open API
852,3007610,Boeun-gun(Sanseonggyo),보청천,36.52027777777778,127.71833333333333,160.142,49.6,Korea,WAMIS Open API
853,3007617,Boeun-gun(Pungchwi2gyo),종곡천,36.49638888888889,127.7375,158.106,7.45,Korea,WAMIS Open API
854,3007620,Boeun-gun(Ipyeonggyo),보청천,36.489444444444445,127.7225,149.294,75.68,Korea,WAMIS Open API
855,3007624,Boeun-gun(Gyosagyo),중초천,36.48527777777778,127.71166666666667,150.821,15.25,Korea,WAMIS Open API
856,3007626,Bocheong,,36.477222222222224,127.67472222222223,,22.71,Korea,WAMIS Open API
857,3007627,Boeun-gun(Hupyeong2gyo),항건천,36.48166666666667,127.69277777777778,158.728,27.03,Korea,WAMIS Open API
858,3007633,Boeun-gun(Myoseogyo),거현천,36.44638888888888,127.69805555555556,182.111,8.3,Korea,WAMIS Open API
859,3007637,Biryong,,36.48888888888889,127.83916666666666,,42.26,Korea,WAMIS Open API
860,3007640,Boeun-gun(Tanbugyo),삼가천,36.43722222222222,127.81166666666667,135.201,81.3,Korea,WAMIS Open API
861,3007644,Boeun-gun(Cheonsanggyo),오덕천,36.41305555555555,127.74972222222222,137.296,25.53,Korea,WAMIS Open API
862,3007645,Boeun-gun(Daeyanggyo),보청천,36.420833333333334,127.79805555555555,127.725,217.7,Korea,WAMIS Open API
863,3007650,Boeun-gun(Gidaegyo),보청천,36.41583333333333,127.82083333333333,125.851,353.6,Korea,WAMIS Open API
864,3007655,Okcheongun(Daeseong1gyo),,36.37027777777778,127.8175,113.89,408.0,Korea,WAMIS Open API
865,3007660,Okcheon-gun(Sangyegyo),보청천,36.31722222222223,127.75805555555556,95.792,483.8,Korea,WAMIS Open API
866,3007670,Okcheongun(Sangyeri),보청천,36.31388888888888,127.73527777777778,92.02,484.0,Korea,WAMIS Open API
867,3008605,Geumsan-gun(Wondanggyo),추풍천,36.223888888888894,127.50277777777778,160.276,29.93,Korea,WAMIS Open API
868,3008630,Okcheon-gun(Okgakgyo),소옥천,36.3175,127.55499999999999,79.893,157.99,Korea,WAMIS Open API
869,3008670,Geumsan-gun(Jewongyo),봉황천,36.111666666666665,127.55277777777778,126.512,211.4,Korea,WAMIS Open API
870,3008680,Daejeonsi(Daecheongjojeongjidam),금강,36.44972222222222,127.45222222222222,33.0,4144.0,Korea,WAMIS Open API
871,3008685,Cheongjusi(Daecheongdambangsuro),금강,36.4775,127.47972222222222,27.0,4134.0,Korea,WAMIS Open API
872,3008690,Cheongjusi(Daecheongdam),금강,36.478611111111114,127.48055555555555,60.0,4134.0,Korea,WAMIS Open API
873,3008693,Boeun-gun(Yongchongyo),회인천,36.500277777777775,127.60027777777778,110.784,21.18,Korea,WAMIS Open API
874,3008695,Daejeon-si(Geumgang1gyo),금강,36.45472222222222,127.41666666666667,22.26,4219.6,Korea,WAMIS Open API
875,3009608,Nonsan-si (Bueonggolgyo),갑천,36.197222222222216,127.28055555555555,125.177,38.22,Korea,WAMIS Open API
876,3009614,Geumsan-gun(Dabokgyo),금성천,36.16138888888889,127.41888888888889,154.118,9.38,Korea,WAMIS Open API
877,3009615,Geumsan-gun(Maehyeongyo),지방천,36.203611111111115,127.37055555555555,113.442,22.78,Korea,WAMIS Open API
878,3009617,Geumsan-gun(Baegamgyo),유등천,36.19277777777778,127.38777777777779,112.585,74.7,Korea,WAMIS Open API
879,3009620,Geumsan-gun(munamgyo),유등천,36.225,127.37777777777777,97.419,111.26,Korea,WAMIS Open API
880,3009630,Daejeon-si(Boksugyo),유등천,36.299166666666665,127.38444444444445,51.993,162.53,Korea,WAMIS Open API
881,3009635,Daejeon-si(daebyeolgyo),대전천,36.290277777777774,127.46277777777777,72.492,42.92,Korea,WAMIS Open API
882,3009640,Daejeon-si(Inchanggyo),,36.32361111111111,127.43444444444445,47.679,56.69,Korea,WAMIS Open API
883,3009645,Daejeon-si(Cheolgapgyo),대동천,36.335,127.43805555555556,48.629,12.5,Korea,WAMIS Open API
884,3009650,Daejeon-si(Yongchongyo),갑천,36.2475,127.31611111111111,72.409,82.7,Korea,WAMIS Open API
885,3009655,Daejeon-si(Dugyegyo),두계천,36.26638888888889,127.27888888888889,91.983,50.0,Korea,WAMIS Open API
886,3009659,Daejeon-si(Maenogyo),매노천,36.25361111111111,127.33972222222222,68.608,12.51,Korea,WAMIS Open API
887,3009665,Daejeon-si(Gasuwongyo),갑천,36.306666666666665,127.35888888888888,47.883,208.7,Korea,WAMIS Open API
888,3009669,Daejeon-si(Sangdaegyo),진잠천,36.33833333333334,127.33638888888889,45.216,23.03,Korea,WAMIS Open API
889,3009670,Daejeon-si(Mannyeongyo),갑천,36.35166666666667,127.34972222222221,39.345,251.07,Korea,WAMIS Open API
890,3009671,Daejeon-si(Oncheonbukgyo),유성천,36.359722222222224,127.3475,39.334,29.94,Korea,WAMIS Open API
891,3009672,Daejeon-si(Jukdong2gyo),반석천,36.36805555555556,127.33333333333333,46.66,13.26,Korea,WAMIS Open API
892,3009673,Daejeon-si(Hanbatdaegyo),유등천,36.356944444444444,127.40305555555557,33.438,276.6,Korea,WAMIS Open API
893,3009675,Daejeon-si(Daedeokdaegyo),갑천,36.373333333333335,127.37972222222221,34.065,307.1,Korea,WAMIS Open API
894,3009680,Daejeon-si(Wonchongyo),갑천,36.37833333333333,127.41000000000001,31.191,609.4,Korea,WAMIS Open API
895,3009687,Daejeon-si(Donghwaulgyo),관평천,36.41777777777777,127.39055555555557,33.686,7.83,Korea,WAMIS Open API
896,3009693,Daejeon-si(Singugyo),갑천,36.43722222222222,127.39333333333335,21.952,642.5,Korea,WAMIS Open API
897,3009698,Daejeon-si(Bongsan-dong),갑천,36.45138888888889,127.39444444444445,20.538,648.4,Korea,WAMIS Open API
898,3010605,Cheongju-si(Jukjeongyo),외천천,36.50416666666667,127.42527777777778,33.621,26.01,Korea,WAMIS Open API
899,3010620,Sejong-si(Noho-ri),금강,36.49277777777778,127.39555555555556,18.141,4942.0,Korea,WAMIS Open API
900,3010660,Sejong-si(Myeonghak-ri),금강,36.519999999999996,127.35749999999999,13.821,5006.3,Korea,WAMIS Open API
901,3011607,Maengdong,,36.896388888888886,127.56972222222223,,7.06,Korea,WAMIS Open API
902,3011612,Baekgok,,36.868611111111115,127.40916666666668,,84.79,Korea,WAMIS Open API
903,3011613,Jincheon-gun (Jigokgyo),백곡천,36.88444444444444,127.37638888888888,102.101,61.34,Korea,WAMIS Open API
904,3011615,Jincheon-gun(Sinjeonggyo),백곡천,36.855000000000004,127.46222222222222,56.672,102.79,Korea,WAMIS Open API
905,3011616,Eumseong-gun(Boryonggyo),마송천,36.87694444444445,127.65361111111112,140.186,12.13,Korea,WAMIS Open API
906,3011617,Jincheon-gun(Geumgokgyo),초평천,36.84666666666667,127.53166666666667,65.256,110.8,Korea,WAMIS Open API
907,3011618,Eumseong-gun(Oryu1gyo),성산천,36.9775,127.47527777777778,78.535,23.39,Korea,WAMIS Open API
908,3011620,Jincheon-gun(Gasangyo),미호천,36.87638888888889,127.47722222222222,52.144,188.9,Korea,WAMIS Open API
909,3011623,Jincheon-gun(Insan-ri),한천,36.865833333333335,127.50555555555556,49.547,84.5,Korea,WAMIS Open API
910,3011624,Jincheon-gun(Ogapgyo),미호천,36.845555555555556,127.50333333333333,47.438,287.1,Korea,WAMIS Open API
911,3011625,Jeungpyeong-gun(Bantangyo),보강천,36.78388888888889,127.57222222222222,48.855,124.63,Korea,WAMIS Open API
912,3011627,Miho,,36.816944444444445,127.49805555555555,,133.3,Korea,WAMIS Open API
913,3011628,Jincheon-gun (Hwasangyo),초평천,36.81444444444444,127.49388888888889,44.122,132.44,Korea,WAMIS Open API
914,3011630,Cheongju-si(Yeoamgyo),미호천,36.77194444444444,127.50972222222222,36.978,577.39,Korea,WAMIS Open API
915,3011631,Jeungpyeong-gun (Seokgokgyo),보강천,36.814166666666665,127.62722222222222,63.534,29.48,Korea,WAMIS Open API
916,3011633,Cheongju-si(Boghyeongyo),성암천,36.74805555555556,127.45277777777778,45.497,60.9,Korea,WAMIS Open API
917,3011635,Cheongju-si(Palgyeolgyo),미호천,36.71416666666667,127.47555555555556,30.121,908.0,Korea,WAMIS Open API
918,3011637,Cheongju-si(Wol-ogyo),월운천,36.61277777777778,127.53388888888888,90.305,6.72,Korea,WAMIS Open API
919,3011639,Cheongju-si(Unam1gyo),영운천,36.617222222222225,127.50555555555556,50.139,7.77,Korea,WAMIS Open API
920,3011640,Cheongju-si(Jangseong2gyo),미평천,36.60027777777778,127.47694444444444,52.083,12.22,Korea,WAMIS Open API
921,3011641,Cheongju-si(Nodonggyo),무심천,36.551944444444445,127.53222222222222,78.81,57.43,Korea,WAMIS Open API
922,3011642,Cheonan-si(Bongamgyo),광기천,36.82555555555556,127.31472222222222,109.005,12.06,Korea,WAMIS Open API
923,3011643,Cheongju-si(Yongpyeonggyo),무심천,36.611666666666665,127.49722222222222,43.869,121.8,Korea,WAMIS Open API
924,3011645,Cheongju-si(Heungdeokgyo),,36.64666666666667,127.48138888888889,36.428,168.46,Korea,WAMIS Open API
925,3011646,Cheongju-si(Yulryang1gyo),율량천,36.66361111111111,127.49583333333334,50.827,6.18,Korea,WAMIS Open API
926,3011647,Cheonan-si(Yeonchungyo),병천천,36.769999999999996,127.25416666666666,60.884,31.5,Korea,WAMIS Open API
927,3011650,Cheonan-si(Jangsangyo),병천천,36.74027777777778,127.29694444444445,48.97,150.2,Korea,WAMIS Open API
928,3011652,Cheongju-si (Seodanggyo),석화천,36.72166666666667,127.55666666666666,49.155,24.43,Korea,WAMIS Open API
929,3011653,Cheonan-si(Seongsan2gyo),용두천,36.73222222222223,127.40583333333333,67.872,8.3,Korea,WAMIS Open API
930,3011657,Ochang,,36.73416666666667,127.40805555555556,,33.1,Korea,WAMIS Open API
931,3011660,Cheongju-si(Hwanhuigyo),,36.67444444444444,127.36166666666666,31.484,342.49,Korea,WAMIS Open API
932,3011663,Cheongju-si(Jidongdong),석남천,36.64833333333333,127.42111111111112,31.301,11.1,Korea,WAMIS Open API
933,3011665,Cheongju-si(Mihoganggyo),미호천,36.62305555555555,127.35055555555554,19.643,1594.07,Korea,WAMIS Open API
934,3011668,Sejong-si (Songseong2gyo),,36.6625,127.215,54.816,60.45,Korea,WAMIS Open API
935,3011675,Sejong-si(Sangjocheongyo),,36.63611111111111,127.28777777777778,29.029,115.06,Korea,WAMIS Open API
936,3011685,Sejong-si(Mihogyo),미호천,36.5825,127.31638888888888,18.253,1618.5,Korea,WAMIS Open API
937,3011686,Yongam,,36.609722222222224,127.24777777777778,,16.2,Korea,WAMIS Open API
938,3011687,Sejong-si(Wolamgyo),월하천,36.57083333333334,127.28833333333333,19.86,40.9,Korea,WAMIS Open API
939,3011695,Seojong-si(Wolsangyo),미호천,36.525555555555556,127.31916666666666,12.496,1852.8,Korea,WAMIS Open API
940,3012600,Sejong-si(Jongchon1gyo),제천,36.49861111111111,127.25166666666667,22.188,9.99,Korea,WAMIS Open API
941,3012602,Sejong-si(hattmurigyo),금강,36.49916666666667,127.29916666666666,10.272,6905.54,Korea,WAMIS Open API
942,3012603,Sejong-si (Gukgokgyo),용수천,36.42722222222222,127.27666666666667,32.951,67.23,Korea,WAMIS Open API
943,3012604,,,36.480000000000004,127.27416666666666,,,Korea,WAMIS Open API
944,3012605,Sejong-si(Geumnamgyo),금강,36.47777777777778,127.27083333333333,10.308,6946.3,Korea,WAMIS Open API
945,3012607,Sejong-si(Doamgyo),용수천,36.446666666666665,127.285,20.325,86.49,Korea,WAMIS Open API
946,3012608,Sejong-si(SejongboHa),금강,36.46944444444445,127.25833333333334,-0.114,6950.6,Korea,WAMIS Open API
947,3012609,Sejong-si(Sanbonggyo),대교천,36.47777777777778,127.23944444444444,18.064,63.1,Korea,WAMIS Open API
948,3012611,Jungheung,,36.56805555555556,127.17500000000001,,9.2,Korea,WAMIS Open API
949,3012612,Gongju-si(Maam-ri),금강,36.434999999999995,127.2088888888889,6.318,7138.5,Korea,WAMIS Open API
950,3012620,Gongju-SI(Geumganggyo),금강,36.467222222222226,127.12472222222222,5.623,7213.34,Korea,WAMIS Open API
951,3012625,Gongju-si(Oingyo),정안천,36.527499999999996,127.12694444444443,18.093,118.18,Korea,WAMIS Open API
952,3012630,Gongjusi(Pyeongsori),유구천,36.51611111111111,126.98666666666666,33.4,95.0,Korea,WAMIS Open API
953,3012633,Gongju-si(GongjuboSang),금강,36.465,127.09861111111111,0.083,7403.8,Korea,WAMIS Open API
954,3012634,Gongju-si(GongjuboHa),금강,36.46083333333333,127.0961111111111,-0.126,7404.4,Korea,WAMIS Open API
955,3012635,Gongju-si(Gukjaegyo),유구천,36.48222222222223,127.04305555555555,14.177,257.42,Korea,WAMIS Open API
956,3012637,Gongju-si (Jangwongyo),정안천,36.573888888888895,127.27666666666667,33.117,79.17,Korea,WAMIS Open API
957,3012650,Cheongyang-gun(Sinheung-ri),금강,36.397777777777776,127.02277777777778,2.063,7814.9,Korea,WAMIS Open API
958,3012655,Cheongyang-gun(Gicheongyo),지천,36.42861111111111,126.79083333333332,77.052,88.3,Korea,WAMIS Open API
959,3012662,Cheongyang-gun(BaekjeboSang),금강,36.32805555555556,126.95416666666667,-0.017,7960.9,Korea,WAMIS Open API
960,3012664,Buyeo-gun(BaekjeboHa),금강,36.316111111111105,126.93555555555555,0.045,7981.6,Korea,WAMIS Open API
